{"version": 0.6, "generator": "Overpass API 0.7.59.2 0994154d", "osm3s": {"timestamp_osm_base": "2023-02-23T16:29:53Z", "copyright": "The data included in this document is from www.openstreetmap.org. The data is made available under ODbL."}, "elements": [{"type": "node", "id": 494263263, "lat": 42.3871971, "lon": -72.5264685, "tags": {"attribution": "massDOT", "bus": "yes", "highway": "bus_stop", "name": "Haigis Mall", "network": "PVTA", "ref": "73", "source": "massdot_import_081511"}}, {"type": "node", "id": 494576665, "lat": 42.36536, "lon": -72.535492, "tags": {"attribution": "massDOT", "bus": "yes", "highway": "bus_stop", "name": "Greenleaves Drive", "network": "PVTA", "ref": "128", "source": "massdot_import_081511"}}, {"type": "node", "id": 494577838, "lat": 42.368645, "lon": -72.533394, "tags": {"attribution": "massDOT", "bus": "yes", "highway": "bus_stop", "name": "Amherst Community Health Ctr (In)", "network": "PVTA", "ref": "124", "source": "massdot_import_081511"}}, {"type": "node", "id": 1336236157, "lat": 42.322189, "lon": -72.529831, "tags": {"attribution": "massDOT", "bus": "yes", "highway": "bus_stop", "name": "Dakin House (Out)", "network": "PVTA", "ref": "243", "source": "massdot_import_081511"}}, {"type": "node", "id": 1336236224, "lat": 42.3210748, "lon": -72.5336301, "tags": {"attribution": "massDOT", "bus": "yes", "highway": "bus_stop", "name": "Eric Carle Museum", "network": "PVTA", "ref": "247", "source": "massdot_import_081511"}}, {"type": "node", "id": 1408370552, "lat": 42.394878, "lon": -72.511108, "tags": {"attribution": "massDOT", "bus": "yes", "highway": "bus_stop", "name": "Admissions Building", "network": "PVTA", "ref": "52", "source": "massdot_import_081511"}}, {"type": "node", "id": 1408370577, "lat": 42.37289, "lon": -72.518814, "tags": {"attribution": "massDOT", "bus": "yes", "highway": "bus_stop", "name": "Amherst College", "network": "PVTA", "ref": "116", "source": "massdot_import_081511"}}, {"type": "node", "id": 1408370578, "lat": 42.374569, "lon": -72.51976, "tags": {"attribution": "massDOT", "bus": "yes", "highway": "bus_stop", "name": "Amherst Common (N)", "network": "PVTA", "ref": "112", "source": "massdot_import_081511"}}, {"type": "node", "id": 1408370579, "lat": 42.374485, "lon": -72.519897, "tags": {"attribution": "massDOT", "bus": "yes", "highway": "bus_stop", "name": "Amherst Common (S)", "network": "PVTA", "ref": "113", "source": "massdot_import_081511"}}, {"type": "node", "id": 1408370580, "lat": 42.36874, "lon": -72.533485, "tags": {"attribution": "massDOT", "bus": "yes", "highway": "bus_stop", "name": "Amherst Community Health Ctr (Out)", "network": "PVTA", "ref": "123", "source": "massdot_import_081511"}}, {"type": "node", "id": 1408370581, "lat": 42.375767, "lon": -72.507088, "tags": {"attribution": "massDOT", "bus": "yes", "highway": "bus_stop", "name": "Amherst Crossing (In)", "network": "PVTA", "ref": "108", "source": "massdot_import_081511"}}, {"type": "node", "id": 1408370582, "lat": 42.375698, "lon": -72.507401, "tags": {"attribution": "massDOT", "bus": "yes", "highway": "bus_stop", "name": "Amherst Crossing (Out)", "network": "PVTA", "ref": "109", "shelter": "no", "source": "massdot_import_081511"}}, {"type": "node", "id": 1408370583, "lat": 42.376263, "lon": -72.501312, "tags": {"attribution": "massDOT", "bench": "no", "bus": "yes", "highway": "bus_stop", "name": "Amherst Glass (In)", "network": "PVTA", "ref": "115", "shelter": "no", "source": "massdot_import_081511"}}, {"type": "node", "id": 1408370584, "lat": 42.376186, "lon": -72.501266, "tags": {"attribution": "massDOT", "bench": "no", "bus": "yes", "highway": "bus_stop", "name": "Amherst Glass (Out)", "network": "PVTA", "ref": "102", "shelter": "no", "source": "massdot_import_081511"}}, {"type": "node", "id": 1408370585, "lat": 42.377796, "lon": -72.519836, "tags": {"attribution": "massDOT", "bus": "yes", "highway": "bus_stop", "name": "Amherst Post Office", "network": "PVTA", "ref": "96", "source": "massdot_import_081511"}}, {"type": "node", "id": 1408370586, "lat": 42.375603, "lon": -72.519341, "tags": {"attribution": "massDOT", "bus": "yes", "highway": "bus_stop", "name": "Amherst Town Hall", "network": "PVTA", "ref": "110", "source": "massdot_import_081511"}}, {"type": "node", "id": 1408370587, "lat": 42.373955, "lon": -72.53167, "tags": {"attribution": "massDOT", "bus": "yes", "highway": "bus_stop", "name": "Amity Place (In)", "network": "PVTA", "ref": "9050", "source": "massdot_import_081511"}}, {"type": "node", "id": 1408370588, "lat": 42.37402, "lon": -72.531555, "tags": {"attribution": "massDOT", "bus": "yes", "highway": "bus_stop", "name": "Amity Place (Out)", "network": "PVTA", "ref": "114", "source": "massdot_import_081511"}}, {"type": "node", "id": 1408370605, "lat": 42.393826, "lon": -72.526108, "tags": {"attribution": "massDOT", "bus": "yes", "highway": "bus_stop", "name": "Arnold House", "network": "PVTA", "ref": "56", "shelter": "yes", "source": "massdot_import_081511"}}, {"type": "node", "id": 1408370697, "lat": 42.31958, "lon": -72.528694, "tags": {"attribution": "massDOT", "bus": "yes", "highway": "bus_stop", "name": "Atkins Farm (In)", "network": "PVTA", "ref": "255", "source": "massdot_import_081511"}}, {"type": "node", "id": 1408370718, "lat": 42.319511, "lon": -72.528717, "tags": {"attribution": "massDOT", "bus": "yes", "highway": "bus_stop", "name": "Atkins Farm (Out)", "network": "PVTA", "ref": "257", "source": "massdot_import_081511"}}, {"type": "node", "id": 1408372721, "lat": 42.446461, "lon": -72.55471, "tags": {"attribution": "massDOT", "bus": "yes", "highway": "bus_stop", "name": "Bagdon Farm", "network": "PVTA", "ref": "13", "source": "massdot_import_081511"}}, {"type": "node", "id": 1408372899, "lat": 42.298473, "lon": -72.415894, "tags": {"attribution": "massDOT", "bus": "yes", "highway": "bus_stop", "name": "Bay Road (In)", "network": "PVTA", "ref": "273", "source": "massdot_import_081511"}}, {"type": "node", "id": 1408372906, "lat": 42.298462, "lon": -72.416046, "tags": {"attribution": "massDOT", "bus": "yes", "highway": "bus_stop", "name": "Bay Road (Out)", "network": "PVTA", "ref": "274", "source": "massdot_import_081511"}}, {"type": "node", "id": 1408373111, "lat": 42.279636, "lon": -72.402382, "tags": {"attribution": "massDOT", "bus": "yes", "highway": "bus_stop", "name": "Belchertown Center 1", "network": "PVTA", "ref": "291", "shelter": "no", "source": "massdot_import_081511"}}, {"type": "node", "id": 1408373116, "lat": 42.277596, "lon": -72.400818, "tags": {"attribution": "massDOT", "bus": "yes", "highway": "bus_stop", "name": "Belchertown Center 2", "network": "PVTA", "ref": "294", "shelter": "no", "source": "massdot_import_081511"}}, {"type": "node", "id": 1408373600, "lat": 42.367916, "lon": -72.534561, "tags": {"attribution": "massDOT", "bus": "yes", "highway": "bus_stop", "name": "Big Y", "network": "PVTA", "public_transport": "platform", "ref": "125", "source": "massdot_import_081511"}}, {"type": "node", "id": 1408373701, "lat": 42.426952, "lon": -72.540077, "tags": {"attribution": "massDOT", "bus": "yes", "highway": "bus_stop", "name": "Bioshelter (In)", "network": "PVTA", "ref": "20", "source": "massdot_import_081511"}}, {"type": "node", "id": 1408373702, "lat": 42.426926, "lon": -72.539932, "tags": {"attribution": "massDOT", "bus": "yes", "highway": "bus_stop", "name": "Bioshelter (Out)", "network": "PVTA", "ref": "19", "source": "massdot_import_081511"}}, {"type": "node", "id": 1408373922, "lat": 42.386314, "lon": -72.531143, "tags": {"attribution": "massDOT", "bus": "yes", "highway": "bus_stop", "name": "Boyden (N)", "network": "PVTA", "ref": "76", "source": "massdot_import_081511"}}, {"type": "node", "id": 1408373924, "lat": 42.386227, "lon": -72.531227, "tags": {"attribution": "massDOT", "bus": "yes", "highway": "bus_stop", "name": "Boyden (S)", "network": "PVTA", "ref": "74", "source": "massdot_import_081511"}}, {"type": "node", "id": 1408374138, "lat": 42.388798, "lon": -72.517487, "tags": {"attribution": "massDOT", "bus": "yes", "highway": "bus_stop", "name": "Butterfield Dorm (E)", "network": "PVTA", "ref": "69", "shelter": "no", "source": "massdot_import_081511"}}, {"type": "node", "id": 1408374152, "lat": 42.388897, "lon": -72.517593, "tags": {"attribution": "massDOT", "bus": "yes", "highway": "bus_stop", "name": "Butterfield Dorm (W)", "network": "PVTA", "ref": "68", "source": "massdot_import_081511"}}, {"type": "node", "id": 1408375804, "lat": 42.340076, "lon": -72.51416, "tags": {"attribution": "massDOT", "bus": "yes", "highway": "bus_stop", "name": "Carriage Lane (E)", "network": "PVTA", "ref": "186", "source": "massdot_import_081511"}}, {"type": "node", "id": 1408375871, "lat": 42.315968, "lon": -72.425835, "tags": {"attribution": "massDOT", "bus": "yes", "highway": "bus_stop", "name": "Cedarwood Apts. (In)", "network": "PVTA", "ref": "265", "source": "massdot_import_081511"}}, {"type": "node", "id": 1408375887, "lat": 42.315971, "lon": -72.425941, "tags": {"attribution": "massDOT", "bus": "yes", "highway": "bus_stop", "name": "Cedarwood Apts. (Out)", "network": "PVTA", "ref": "264", "source": "massdot_import_081511"}}, {"type": "node", "id": 1408376340, "lat": 42.389362, "lon": -72.51886, "tags": {"attribution": "massDOT", "bus": "yes", "highway": "bus_stop", "name": "Chadbourne (N)", "network": "PVTA", "ref": "65", "shelter": "no", "source": "massdot_import_081511"}}, {"type": "node", "id": 1408376343, "lat": 42.389412, "lon": -72.518913, "tags": {"attribution": "massDOT", "bus": "yes", "highway": "bus_stop", "name": "Chadbourne (S)", "network": "PVTA", "ref": "66", "shelter": "no", "source": "massdot_import_081511"}}, {"type": "node", "id": 1408376395, "lat": 42.404533, "lon": -72.514862, "tags": {"attribution": "massDOT", "bus": "yes", "highway": "bus_stop", "name": "Cherry Lane", "network": "PVTA", "ref": "36", "source": "massdot_import_081511"}}, {"type": "node", "id": 1408376470, "lat": 42.383675, "lon": -72.518478, "tags": {"attribution": "massDOT", "bus": "yes", "highway": "bus_stop", "name": "Chestnut Street (N)", "network": "PVTA", "ref": "79", "source": "massdot_import_081511"}}, {"type": "node", "id": 1408376481, "lat": 42.383469, "lon": -72.518753, "tags": {"attribution": "massDOT", "bus": "yes", "highway": "bus_stop", "name": "Chestnut Street (S)", "network": "PVTA", "ref": "80", "source": "massdot_import_081511"}}, {"type": "node", "id": 1408376553, "lat": 42.315357, "lon": -72.57592, "tags": {"attribution": "massDOT", "bus": "yes", "highway": "bus_stop", "name": "Chumura Road (N)", "network": "PVTA", "ref": "9058", "source": "massdot_import_081511"}}, {"type": "node", "id": 1408376559, "lat": 42.31543, "lon": -72.575989, "tags": {"attribution": "massDOT", "bus": "yes", "highway": "bus_stop", "name": "Chumura Road (S)", "network": "PVTA", "ref": "9059", "source": "massdot_import_081511"}}, {"type": "node", "id": 1408376601, "lat": 42.375877, "lon": -72.516556, "tags": {"attribution": "massDOT", "bus": "yes", "highway": "bus_stop", "name": "Churchill Street", "network": "PVTA", "ref": "105", "source": "massdot_import_081511"}}, {"type": "node", "id": 1408376662, "lat": 42.395496, "lon": -72.532494, "tags": {"attribution": "massDOT", "bus": "yes", "highway": "bus_stop", "name": "CmpSci (Lot 26)", "network": "PVTA", "ref": "49", "source": "massdot_import_081511"}}, {"type": "node", "id": 1408376674, "lat": 42.395397, "lon": -72.532455, "tags": {"attribution": "massDOT", "bus": "yes", "highway": "bus_stop", "name": "CmpSci (Lot 45)", "network": "PVTA", "ref": "50", "source": "massdot_import_081511"}}, {"type": "node", "id": 1408376757, "lat": 42.369362, "lon": -72.501648, "tags": {"attribution": "massDOT", "bus": "yes", "highway": "bus_stop", "name": "Colonial Village & S East St. (In)", "network": "PVTA", "ref": "120", "source": "massdot_import_081511"}}, {"type": "node", "id": 1408376762, "lat": 42.369293, "lon": -72.501717, "tags": {"attribution": "massDOT", "bus": "yes", "highway": "bus_stop", "name": "Colonial Village & S East St. (Out)", "network": "PVTA", "ref": "121", "source": "massdot_import_081511"}}, {"type": "node", "id": 1408376767, "lat": 42.370281, "lon": -72.499146, "tags": {"attribution": "massDOT", "bus": "yes", "highway": "bus_stop", "name": "Colonial Village (In)", "network": "PVTA", "ref": "118", "source": "massdot_import_081511"}}, {"type": "node", "id": 1408376768, "lat": 42.370186, "lon": -72.499069, "tags": {"attribution": "massDOT", "bus": "yes", "highway": "bus_stop", "name": "Colonial Village (Out)", "network": "PVTA", "ref": "119", "source": "massdot_import_081511"}}, {"type": "node", "id": 1408376775, "lat": 42.354034, "lon": -72.522133, "tags": {"attribution": "massDOT", "bus": "yes", "highway": "bus_stop", "name": "Columbia Drive (In)", "network": "PVTA", "ref": "147", "source": "massdot_import_081511"}}, {"type": "node", "id": 1408376780, "lat": 42.353821, "lon": -72.5224, "tags": {"attribution": "massDOT", "bus": "yes", "highway": "bus_stop", "name": "Columbia Drive (Out)", "network": "PVTA", "ref": "8011", "source": "massdot_import_081511"}}, {"type": "node", "id": 1408376990, "lat": 42.377876, "lon": -72.520004, "tags": {"attribution": "massDOT", "bench": "yes", "bin": "yes", "bus": "yes", "highway": "bus_stop", "lit": "yes", "name": "Cowles Lane", "network": "PVTA", "ref": "95", "shelter": "yes", "source": "massdot_import_081511", "tactile_paving": "no"}}, {"type": "node", "id": 1408377057, "lat": 42.403851, "lon": -72.529442, "tags": {"attribution": "massDOT", "bus": "yes", "highway": "bus_stop", "name": "Crestview", "network": "PVTA", "ref": "37", "source": "massdot_import_081511"}}, {"type": "node", "id": 1408377068, "lat": 42.34737, "lon": -72.52018, "tags": {"attribution": "massDOT", "bus": "yes", "highway": "bus_stop", "name": "Crocker Farm (In)", "network": "PVTA", "ref": "166", "source": "massdot_import_081511"}}, {"type": "node", "id": 1408377071, "lat": 42.344849, "lon": -72.520538, "tags": {"attribution": "massDOT", "bus": "yes", "highway": "bus_stop", "name": "Crocker Farm (Out)", "network": "PVTA", "ref": "167", "source": "massdot_import_081511"}}, {"type": "node", "id": 1408377107, "lat": 42.412968, "lon": -72.508003, "tags": {"attribution": "massDOT", "bus": "yes", "highway": "bus_stop", "name": "Cushman Center", "network": "PVTA", "ref": "25", "source": "massdot_import_081511"}}, {"type": "node", "id": 1408377108, "lat": 42.413822, "lon": -72.506348, "tags": {"attribution": "massDOT", "bus": "yes", "highway": "bus_stop", "name": "Cushman Day School", "network": "PVTA", "ref": "24", "source": "massdot_import_081511"}}, {"type": "node", "id": 1408377301, "lat": 42.340645, "lon": -72.519943, "tags": {"attribution": "massDOT", "bus": "yes", "highway": "bus_stop", "name": "Pomeroy Lane (In)", "network": "PVTA", "ref": "179", "source": "massdot_import_081511"}}, {"type": "node", "id": 1408377308, "lat": 42.340313, "lon": -72.52018, "tags": {"attribution": "massDOT", "bus": "yes", "highway": "bus_stop", "name": "Pomeroy Lane (Out)", "network": "PVTA", "ref": "184", "source": "massdot_import_081511"}}, {"type": "node", "id": 1408377316, "lat": 42.322094, "lon": -72.529892, "tags": {"attribution": "massDOT", "bus": "yes", "highway": "bus_stop", "name": "Dakin House (In)", "network": "PVTA", "ref": "245", "source": "massdot_import_081511"}}, {"type": "node", "id": 1408377317, "lat": 42.377541, "lon": -72.532898, "tags": {"attribution": "massDOT", "bus": "yes", "highway": "bus_stop", "name": "Dallas Mall (E)", "network": "PVTA", "ref": "98", "source": "massdot_import_081511"}}, {"type": "node", "id": 1408377318, "lat": 42.377583, "lon": -72.53273, "tags": {"attribution": "massDOT", "bus": "yes", "highway": "bus_stop", "name": "Dallas Mall (W)", "network": "PVTA", "ref": "97", "source": "massdot_import_081511"}}, {"type": "node", "id": 1408377324, "lat": 42.381481, "lon": -72.533844, "tags": {"attribution": "massDOT", "bus": "yes", "highway": "bus_stop", "name": "Day School (N)", "network": "PVTA", "ref": "90", "source": "massdot_import_081511"}}, {"type": "node", "id": 1408377325, "lat": 42.381531, "lon": -72.533913, "tags": {"attribution": "massDOT", "bus": "yes", "highway": "bus_stop", "name": "Day School (S)", "network": "PVTA", "ref": "89", "source": "massdot_import_081511"}}, {"type": "node", "id": 1408377331, "lat": 42.325516, "lon": -72.439056, "tags": {"attribution": "massDOT", "bus": "yes", "highway": "bus_stop", "name": "Diane Lane (In)", "network": "PVTA", "ref": "240", "source": "massdot_import_081511"}}, {"type": "node", "id": 1408377332, "lat": 42.325356, "lon": -72.438461, "tags": {"attribution": "massDOT", "bus": "yes", "highway": "bus_stop", "name": "Diane Lane (Out)", "network": "PVTA", "ref": "241", "source": "massdot_import_081511"}}, {"type": "node", "id": 1408377532, "lat": 42.365059, "lon": -72.484306, "tags": {"attribution": "massDOT", "bus": "yes", "highway": "bus_stop", "name": "Emerson Court (In)", "network": "PVTA", "ref": "12901", "source": "massdot_import_081511"}}, {"type": "node", "id": 1408377533, "lat": 42.365135, "lon": -72.484268, "tags": {"attribution": "massDOT", "bus": "yes", "highway": "bus_stop", "name": "Emerson Court (Out)", "network": "PVTA", "ref": "129", "source": "massdot_import_081511"}}, {"type": "node", "id": 1408377582, "lat": 42.398136, "lon": -72.528122, "tags": {"attribution": "massDOT", "bus": "yes", "highway": "bus_stop", "name": "Fairfield Street", "network": "PVTA", "ref": "42", "source": "massdot_import_081511"}}, {"type": "node", "id": 1408377592, "lat": 42.337933, "lon": -72.53157, "tags": {"attribution": "massDOT", "bus": "yes", "highway": "bus_stop", "name": "Farmington (N)", "network": "PVTA", "ref": "196", "source": "massdot_import_081511"}}, {"type": "node", "id": 1408377593, "lat": 42.336243, "lon": -72.532089, "tags": {"attribution": "massDOT", "bus": "yes", "highway": "bus_stop", "name": "Farmington (S)", "network": "PVTA", "ref": "206", "source": "massdot_import_081511"}}, {"type": "node", "id": 1408377598, "lat": 42.383041, "lon": -72.520485, "tags": {"attribution": "massDOT", "bus": "yes", "highway": "bus_stop", "name": "Fearing Street (In)", "network": "PVTA", "ref": "81", "source": "massdot_import_081511"}}, {"type": "node", "id": 1408377599, "lat": 42.382877, "lon": -72.520561, "tags": {"attribution": "massDOT", "bus": "yes", "highway": "bus_stop", "name": "Fearing Street (Out)", "network": "PVTA", "ref": "82", "source": "massdot_import_081511"}}, {"type": "node", "id": 1408377606, "lat": 42.387821, "lon": -72.523911, "tags": {"attribution": "massDOT", "bus": "yes", "highway": "bus_stop", "name": "Fine Arts Center", "network": "PVTA", "ref": "71", "source": "massdot_import_081511"}}, {"type": "node", "id": 1408377647, "lat": 42.395786, "lon": -72.511124, "tags": {"attribution": "massDOT", "bus": "yes", "highway": "bus_stop", "name": "Frat/Sort Park", "network": "PVTA", "ref": "48", "source": "massdot_import_081511"}}, {"type": "node", "id": 1408377744, "lat": 42.393482, "lon": -72.526077, "tags": {"attribution": "massDOT", "bus": "yes", "highway": "bus_stop", "name": "PSB", "network": "PVTA", "ref": "58", "shelter": "yes", "source": "massdot_import_081511"}}, {"type": "node", "id": 1408377749, "lat": 42.465275, "lon": -72.575951, "tags": {"attribution": "massDOT", "bus": "yes", "highway": "bus_stop", "name": "Garage Road (In)", "network": "PVTA", "ref": "8005", "source": "massdot_import_081511"}}, {"type": "node", "id": 1408377750, "lat": 42.465324, "lon": -72.575821, "tags": {"attribution": "massDOT", "bus": "yes", "highway": "bus_stop", "name": "Garage Road (Out)", "network": "PVTA", "ref": "6", "source": "massdot_import_081511"}}, {"type": "node", "id": 1408377756, "lat": 42.363277, "lon": -72.488319, "tags": {"attribution": "massDOT", "bus": "yes", "highway": "bus_stop", "name": "Gatehouse Road (In)", "network": "PVTA", "ref": "13101", "source": "massdot_import_081511"}}, {"type": "node", "id": 1408377757, "lat": 42.363365, "lon": -72.488472, "tags": {"attribution": "massDOT", "bus": "yes", "highway": "bus_stop", "name": "Gatehouse Road (Out)", "network": "PVTA", "ref": "131", "source": "massdot_import_081511"}}, {"type": "node", "id": 1408377764, "lat": 42.311531, "lon": -72.422951, "tags": {"attribution": "massDOT", "bus": "yes", "highway": "bus_stop", "name": "Glenn's Glen (In)", "network": "PVTA", "ref": "269", "source": "massdot_import_081511"}}, {"type": "node", "id": 1408377765, "lat": 42.311543, "lon": -72.423073, "tags": {"attribution": "massDOT", "bus": "yes", "highway": "bus_stop", "name": "Glenn's Glen (Out)", "network": "PVTA", "ref": "270", "source": "massdot_import_081511"}}, {"type": "node", "id": 1408377778, "lat": 42.458321, "lon": -72.572556, "tags": {"attribution": "massDOT", "bus": "yes", "highway": "bus_stop", "name": "Goten Restaurant", "network": "PVTA", "ref": "8", "source": "massdot_import_081511"}}, {"type": "node", "id": 1408377834, "lat": 42.289093, "lon": -72.535439, "tags": {"attribution": "massDOT", "bus": "yes", "highway": "bus_stop", "name": "Granby Heights Apts. (In)", "network": "PVTA", "ref": "280", "source": "massdot_import_081511"}}, {"type": "node", "id": 1408377838, "lat": 42.289146, "lon": -72.53566, "tags": {"attribution": "massDOT", "bus": "yes", "highway": "bus_stop", "name": "Granby Heights Apts. (Out)", "network": "PVTA", "ref": "277", "source": "massdot_import_081511"}}, {"type": "node", "id": 1408377885, "lat": 42.40683, "lon": -72.514465, "tags": {"attribution": "massDOT", "bus": "yes", "highway": "bus_stop", "name": "Grantwood Drive", "network": "PVTA", "ref": "33", "source": "massdot_import_081511"}}, {"type": "node", "id": 1408377888, "lat": 42.375919, "lon": -72.511971, "tags": {"attribution": "massDOT", "bus": "yes", "highway": "bus_stop", "name": "Gray Street (In)", "network": "PVTA", "ref": "104", "source": "massdot_import_081511"}}, {"type": "node", "id": 1408377891, "lat": 42.37582, "lon": -72.511925, "tags": {"attribution": "massDOT", "bus": "yes", "highway": "bus_stop", "name": "Gray Street (Out)", "network": "PVTA", "ref": "106", "source": "massdot_import_081511"}}, {"type": "node", "id": 1408377894, "lat": 42.392632, "lon": -72.519211, "tags": {"attribution": "massDOT", "bus": "yes", "highway": "bus_stop", "name": "Grayson Dorm", "network": "PVTA", "ref": "59", "source": "massdot_import_081511"}}, {"type": "node", "id": 1408377922, "lat": 42.329556, "lon": -72.448021, "tags": {"attribution": "massDOT", "bus": "yes", "highway": "bus_stop", "name": "Gulf Road (In)", "network": "PVTA", "ref": "231", "source": "massdot_import_081511"}}, {"type": "node", "id": 1408377923, "lat": 42.329529, "lon": -72.448265, "tags": {"attribution": "massDOT", "bus": "yes", "highway": "bus_stop", "name": "Gulf Road (Out)", "network": "PVTA", "ref": "232", "source": "massdot_import_081511"}}, {"type": "node", "id": 1408377937, "lat": 42.319839, "lon": -72.543953, "tags": {"attribution": "massDOT", "bus": "yes", "highway": "bus_stop", "name": "HC Physical Plant (E)", "network": "PVTA", "ref": "3007", "source": "massdot_import_081511"}}, {"type": "node", "id": 1408377938, "lat": 42.319889, "lon": -72.543839, "tags": {"attribution": "massDOT", "bus": "yes", "highway": "bus_stop", "name": "HC Physical Plant (W)", "network": "PVTA", "ref": "3008", "source": "massdot_import_081511"}}, {"type": "node", "id": 1408377999, "lat": 42.279011, "lon": -72.558083, "tags": {"attribution": "massDOT", "bus": "yes", "highway": "bus_stop", "name": "Hadley Road (N)", "network": "PVTA", "ref": "290", "source": "massdot_import_081511"}}, {"type": "node", "id": 1408378009, "lat": 42.357929, "lon": -72.484245, "tags": {"attribution": "massDOT", "bus": "yes", "highway": "bus_stop", "name": "Hall Drive", "network": "PVTA", "ref": "8000", "source": "massdot_import_081511"}}, {"type": "node", "id": 1408378023, "lat": 42.355961, "lon": -72.55014, "tags": {"attribution": "massDOT", "bus": "yes", "highway": "bus_stop", "name": "Hampshire Mall", "network": "PVTA", "ref": "140", "source": "massdot_import_081511"}}, {"type": "node", "id": 1408378052, "lat": 42.329445, "lon": -72.565979, "tags": {"attribution": "massDOT", "bus": "yes", "highway": "bus_stop", "name": "Hartbrook School (E)", "network": "PVTA", "ref": "9057", "source": "massdot_import_081511"}}, {"type": "node", "id": 1408378053, "lat": 42.329472, "lon": -72.566528, "tags": {"attribution": "massDOT", "bus": "yes", "highway": "bus_stop", "name": "Hartbrook School (W)", "network": "PVTA", "ref": "9056", "source": "massdot_import_081511"}}, {"type": "node", "id": 1408378105, "lat": 42.3909, "lon": -72.525261, "tags": {"attribution": "massDOT", "bus": "yes", "highway": "bus_stop", "name": "Hasbrouck", "network": "PVTA", "ref": "64", "source": "massdot_import_081511"}}, {"type": "node", "id": 1408378156, "lat": 42.376102, "lon": -72.481049, "tags": {"attribution": "massDOT", "bus": "yes", "highway": "bus_stop", "name": "Heatherstone Road (In)", "network": "PVTA", "ref": "11101", "source": "massdot_import_081511"}}, {"type": "node", "id": 1408378165, "lat": 42.375839, "lon": -72.481194, "tags": {"attribution": "massDOT", "bus": "yes", "highway": "bus_stop", "name": "Heatherstone Road (Out)", "network": "PVTA", "ref": "111", "source": "massdot_import_081511"}}, {"type": "node", "id": 1408378276, "lat": 42.321774, "lon": -72.428062, "tags": {"attribution": "massDOT", "bus": "yes", "highway": "bus_stop", "name": "Hollen Glen (In)", "network": "PVTA", "ref": "248", "source": "massdot_import_081511"}}, {"type": "node", "id": 1408378280, "lat": 42.321751, "lon": -72.428177, "tags": {"attribution": "massDOT", "bus": "yes", "highway": "bus_stop", "name": "Hollen Glen (Out)", "network": "PVTA", "ref": "250", "source": "massdot_import_081511"}}, {"type": "node", "id": 1408378377, "lat": 42.375771, "lon": -72.521782, "tags": {"attribution": "massDOT", "bus": "yes", "highway": "bus_stop", "name": "Jones Library (In)", "network": "PVTA", "ref": "9052", "source": "massdot_import_081511"}}, {"type": "node", "id": 1408378378, "lat": 42.375854, "lon": -72.52124, "tags": {"attribution": "massDOT", "bus": "yes", "highway": "bus_stop", "name": "Jones Library (Out)", "network": "PVTA", "ref": "103", "source": "massdot_import_081511"}}, {"type": "node", "id": 1408378495, "lat": 42.442162, "lon": -72.551491, "tags": {"attribution": "massDOT", "bus": "yes", "highway": "bus_stop", "name": "Laurenitis Farm Stand (In)", "network": "PVTA", "ref": "15", "source": "massdot_import_081511"}}, {"type": "node", "id": 1408378496, "lat": 42.442165, "lon": -72.551346, "tags": {"attribution": "massDOT", "bus": "yes", "highway": "bus_stop", "name": "Laurenitis Farm Stand (Out)", "network": "PVTA", "ref": "14", "source": "massdot_import_081511"}}, {"type": "node", "id": 1408378532, "lat": 42.375584, "lon": -72.523911, "tags": {"attribution": "massDOT", "bus": "yes", "highway": "bus_stop", "name": "Lincoln Avenue (In)", "network": "PVTA", "ref": "9051", "source": "massdot_import_081511"}}, {"type": "node", "id": 1408378533, "lat": 42.375687, "lon": -72.523842, "tags": {"attribution": "massDOT", "bus": "yes", "highway": "bus_stop", "name": "Lincoln Avenue (Out)", "network": "PVTA", "ref": "107", "source": "massdot_import_081511"}}, {"type": "node", "id": 1408378627, "lat": 42.356838, "lon": -72.482407, "tags": {"attribution": "massDOT", "bus": "yes", "highway": "bus_stop", "name": "Logtown Road (In)", "network": "PVTA", "ref": "138", "source": "massdot_import_081511"}}, {"type": "node", "id": 1408378632, "lat": 42.356487, "lon": -72.481956, "tags": {"attribution": "massDOT", "bus": "yes", "highway": "bus_stop", "name": "Logtown Road (Out)", "network": "PVTA", "ref": "139", "source": "massdot_import_081511"}}, {"type": "node", "id": 1408378652, "lat": 42.334526, "lon": -72.524353, "tags": {"attribution": "massDOT", "bus": "yes", "highway": "bus_stop", "name": "Longmeadow Drive", "network": "PVTA", "ref": "217", "source": "massdot_import_081511"}}, {"type": "node", "id": 1408378681, "lat": 42.395309, "lon": -72.513191, "tags": {"attribution": "massDOT", "bus": "yes", "highway": "bus_stop", "name": "Lot 13", "network": "PVTA", "ref": "51", "source": "massdot_import_081511"}}, {"type": "node", "id": 1408378682, "lat": 42.392529, "lon": -72.534241, "tags": {"attribution": "massDOT", "bus": "yes", "highway": "bus_stop", "name": "Lot 25", "network": "PVTA", "ref": "60", "source": "massdot_import_081511"}}, {"type": "node", "id": 1408378683, "lat": 42.382278, "lon": -72.532211, "tags": {"attribution": "massDOT", "bus": "yes", "highway": "bus_stop", "name": "Lot 33 (E)", "network": "PVTA", "ref": "84", "source": "massdot_import_081511"}}, {"type": "node", "id": 1408378684, "lat": 42.382336, "lon": -72.532173, "tags": {"attribution": "massDOT", "bus": "yes", "highway": "bus_stop", "name": "Lot 33 (W)", "network": "PVTA", "ref": "83", "source": "massdot_import_081511"}}, {"type": "node", "id": 1408378707, "lat": 42.282345, "lon": -72.553612, "tags": {"attribution": "massDOT", "bus": "yes", "highway": "bus_stop", "name": "Lynn Drive (In)", "network": "PVTA", "ref": "287", "source": "massdot_import_081511"}}, {"type": "node", "id": 1408378708, "lat": 42.282478, "lon": -72.553574, "tags": {"attribution": "massDOT", "bus": "yes", "highway": "bus_stop", "name": "Lynn Drive (Out)", "network": "PVTA", "ref": "286", "source": "massdot_import_081511"}}, {"type": "node", "id": 1408379172, "lat": 42.415382, "lon": -72.507339, "tags": {"attribution": "massDOT", "bus": "yes", "highway": "bus_stop", "name": "Market Hill Road", "network": "PVTA", "ref": "22", "source": "massdot_import_081511"}}, {"type": "node", "id": 1408379296, "lat": 42.350712, "lon": -72.470169, "tags": {"attribution": "massDOT", "bus": "yes", "highway": "bus_stop", "name": "Mayflower Apts. (In)", "network": "PVTA", "ref": "154", "source": "massdot_import_081511"}}, {"type": "node", "id": 1408379297, "lat": 42.350464, "lon": -72.470062, "tags": {"attribution": "massDOT", "bus": "yes", "highway": "bus_stop", "name": "Mayflower Apts. (Out)", "network": "PVTA", "ref": "156", "source": "massdot_import_081511"}}, {"type": "node", "id": 1408379307, "lat": 42.362606, "lon": -72.520706, "tags": {"attribution": "massDOT", "bus": "yes", "highway": "bus_stop", "name": "Memorial Drive (In)", "network": "PVTA", "ref": "133", "source": "massdot_import_081511"}}, {"type": "node", "id": 1408379308, "lat": 42.362564, "lon": -72.520828, "tags": {"attribution": "massDOT", "bus": "yes", "highway": "bus_stop", "name": "Memorial Drive (Out)", "network": "PVTA", "public_transport": "platform", "ref": "132", "source": "massdot_import_081511"}}, {"type": "node", "id": 1408379368, "lat": 42.334358, "lon": -72.588104, "tags": {"attribution": "massDOT", "bus": "yes", "highway": "bus_stop", "name": "Middle Street & Rt 47 (E)", "network": "PVTA", "ref": "8018", "source": "massdot_import_081511"}}, {"type": "node", "id": 1408379374, "lat": 42.34026, "lon": -72.504967, "tags": {"attribution": "massDOT", "bus": "yes", "highway": "bus_stop", "name": "Middle Street (E)", "network": "PVTA", "ref": "185", "source": "massdot_import_081511"}}, {"type": "node", "id": 1408379428, "lat": 42.4162186, "lon": -72.5202887, "tags": {"attribution": "massDOT", "bus": "yes", "highway": "bus_stop", "name": "Mill Hollow Apts.", "network": "PVTA", "ref": "21", "source": "massdot_import_081511"}}, {"type": "node", "id": 1408379439, "lat": 42.354939, "lon": -72.52066, "tags": {"attribution": "massDOT", "bus": "yes", "highway": "bus_stop", "name": "Mill Street (In)", "network": "PVTA", "ref": "145", "source": "massdot_import_081511"}}, {"type": "node", "id": 1408379441, "lat": 42.354973, "lon": -72.520813, "tags": {"attribution": "massDOT", "bus": "yes", "highway": "bus_stop", "name": "Mill Street (Out)", "network": "PVTA", "ref": "8010", "source": "massdot_import_081511"}}, {"type": "node", "id": 1408379535, "lat": 42.391472, "lon": -72.525238, "tags": {"attribution": "massDOT", "bus": "yes", "highway": "bus_stop", "name": "Morrill", "network": "PVTA", "ref": "63", "source": "massdot_import_081511"}}, {"type": "node", "id": 1408379556, "lat": 42.355381, "lon": -72.55201, "tags": {"attribution": "massDOT", "bus": "yes", "highway": "bus_stop", "name": "Mountain Farms Mall", "network": "PVTA", "ref": "142", "source": "massdot_import_081511"}}, {"type": "node", "id": 1408379578, "lat": 42.389175, "lon": -72.532303, "tags": {"attribution": "massDOT", "bus": "yes", "highway": "bus_stop", "name": "Mullins Center (N)", "network": "PVTA", "ref": "70", "source": "massdot_import_081511"}}, {"type": "node", "id": 1408379582, "lat": 42.389172, "lon": -72.532471, "tags": {"attribution": "massDOT", "bus": "yes", "highway": "bus_stop", "name": "Mullins Center (S)", "network": "PVTA", "ref": "67", "source": "massdot_import_081511"}}, {"type": "node", "id": 1408379595, "lat": 42.411125, "lon": -72.530647, "tags": {"attribution": "massDOT", "bus": "yes", "highway": "bus_stop", "name": "N Amherst - Rt 63 (In)", "network": "PVTA", "ref": "27", "source": "massdot_import_081511"}}, {"type": "node", "id": 1408379981, "lat": 42.409107, "lon": -72.530739, "tags": {"attribution": "massDOT", "bus": "yes", "departures_board": "no", "highway": "bus_stop", "name": "North Amherst (In)", "network": "PVTA", "public_transport": "platform", "ref": "32", "shelter": "no", "source": "massdot_import_081511"}}, {"type": "node", "id": 1408379982, "lat": 42.409172, "lon": -72.530632, "tags": {"attribution": "massDOT", "bus": "yes", "departures_board": "no", "highway": "bus_stop", "name": "North Amherst (Out)", "network": "PVTA", "public_transport": "platform", "ref": "31", "shelter": "no", "source": "massdot_import_081511"}}, {"type": "node", "id": 1408379983, "lat": 42.411125, "lon": -72.530556, "tags": {"attribution": "massDOT", "bus": "yes", "highway": "bus_stop", "name": "North Amherst-Rt 63 (Out)", "network": "PVTA", "ref": "9999", "source": "massdot_import_081511"}}, {"type": "node", "id": 1408380039, "lat": 42.33852, "lon": -72.457428, "tags": {"attribution": "massDOT", "bus": "yes", "highway": "bus_stop", "name": "North Street (In)", "network": "PVTA", "ref": "197", "source": "massdot_import_081511"}}, {"type": "node", "id": 1408380040, "lat": 42.338253, "lon": -72.457474, "tags": {"attribution": "massDOT", "bus": "yes", "highway": "bus_stop", "name": "North Street (Out)", "network": "PVTA", "ref": "198", "source": "massdot_import_081511"}}, {"type": "node", "id": 1408380041, "lat": 42.403198, "lon": -72.52916, "tags": {"attribution": "massDOT", "bus": "yes", "highway": "bus_stop", "name": "North Village", "network": "PVTA", "ref": "38", "source": "massdot_import_081511"}}, {"type": "node", "id": 1408380050, "lat": 42.304813, "lon": -72.52829, "tags": {"attribution": "massDOT", "bus": "yes", "highway": "bus_stop", "name": "Notch Visitors Center (In)", "network": "PVTA", "ref": "271", "source": "massdot_import_081511"}}, {"type": "node", "id": 1408380051, "lat": 42.304188, "lon": -72.528114, "tags": {"attribution": "massDOT", "bus": "yes", "highway": "bus_stop", "name": "Notch Visitors Center (Out)", "network": "PVTA", "ref": "272", "source": "massdot_import_081511"}}, {"type": "node", "id": 1408380081, "lat": 42.371647, "lon": -72.480011, "tags": {"attribution": "massDOT", "bus": "yes", "highway": "bus_stop", "name": "Oak Knoll (In)", "network": "PVTA", "ref": "11701", "source": "massdot_import_081511"}}, {"type": "node", "id": 1408380082, "lat": 42.371635, "lon": -72.480095, "tags": {"attribution": "massDOT", "bus": "yes", "highway": "bus_stop", "name": "Oak Knoll (Out)", "network": "PVTA", "ref": "117", "source": "massdot_import_081511"}}, {"type": "node", "id": 1408380129, "lat": 42.35347, "lon": -72.476204, "tags": {"attribution": "massDOT", "bus": "yes", "highway": "bus_stop", "name": "Old Belchertown Road", "network": "PVTA", "ref": "148", "source": "massdot_import_081511"}}, {"type": "node", "id": 1408380130, "lat": 42.353374, "lon": -72.47625, "tags": {"attribution": "massDOT", "bus": "yes", "highway": "bus_stop", "name": "Old Belchertown Road (Out)", "network": "PVTA", "ref": "149", "source": "massdot_import_081511"}}, {"type": "node", "id": 1408380131, "lat": 42.354706, "lon": -72.48011, "tags": {"attribution": "massDOT", "bus": "yes", "highway": "bus_stop", "name": "Old Belchertown Road 2", "network": "PVTA", "ref": "8002", "source": "massdot_import_081511"}}, {"type": "node", "id": 1408380463, "lat": 42.412392, "lon": -72.513252, "tags": {"attribution": "massDOT", "bus": "yes", "highway": "bus_stop", "name": "Pine Street", "network": "PVTA", "ref": "26", "source": "massdot_import_081511"}}, {"type": "node", "id": 1408380466, "lat": 42.459343, "lon": -72.578453, "tags": {"attribution": "massDOT", "bus": "yes", "highway": "bus_stop", "name": "Pioneer Vally Apts.", "network": "PVTA", "ref": "7", "source": "massdot_import_081511"}}, {"type": "node", "id": 1408380558, "lat": 42.432369, "lon": -72.544518, "tags": {"attribution": "massDOT", "bus": "yes", "highway": "bus_stop", "name": "Plumtree Road (In)", "network": "PVTA", "ref": "17", "source": "massdot_import_081511"}}, {"type": "node", "id": 1408380559, "lat": 42.431259, "lon": -72.543449, "tags": {"attribution": "massDOT", "bus": "yes", "highway": "bus_stop", "name": "Plumtree Road (Out)", "network": "PVTA", "ref": "18", "source": "massdot_import_081511"}}, {"type": "node", "id": 1408380589, "lat": 42.339981, "lon": -72.519768, "tags": {"attribution": "massDOT", "bus": "yes", "highway": "bus_stop", "name": "Pomeroy Lane (E)", "network": "PVTA", "ref": "187", "source": "massdot_import_081511"}}, {"type": "node", "id": 1408380623, "lat": 42.333149, "lon": -72.523468, "tags": {"attribution": "massDOT", "bus": "yes", "highway": "bus_stop", "name": "Potwine Lane (In)", "network": "PVTA", "ref": "221", "source": "massdot_import_081511"}}, {"type": "node", "id": 1408380631, "lat": 42.332973, "lon": -72.523613, "tags": {"attribution": "massDOT", "bus": "yes", "highway": "bus_stop", "name": "Potwine Lane (Out)", "network": "PVTA", "ref": "222", "source": "massdot_import_081511"}}, {"type": "node", "id": 1408380633, "lat": 42.379749, "lon": -72.519508, "tags": {"attribution": "massDOT", "bench": "no", "bus": "yes", "highway": "bus_stop", "name": "Pray Street (In)", "network": "PVTA", "ref": "94", "shelter": "yes", "source": "massdot_import_081511"}}, {"type": "node", "id": 1408380643, "lat": 42.379574, "lon": -72.519714, "tags": {"attribution": "massDOT", "bus": "yes", "highway": "bus_stop", "name": "Pray Street (Out)", "network": "PVTA", "ref": "93", "source": "massdot_import_081511"}}, {"type": "node", "id": 1408380712, "lat": 42.405869, "lon": -72.532486, "tags": {"attribution": "massDOT", "bench": "no", "bus": "yes", "highway": "bus_stop", "name": "Puffton Village 1", "network": "PVTA", "ref": "34", "shelter": "yes", "source": "massdot_import_081511"}}, {"type": "node", "id": 1408380715, "lat": 42.404942, "lon": -72.530884, "tags": {"attribution": "massDOT", "bus": "yes", "highway": "bus_stop", "name": "Puffton Village 2", "network": "PVTA", "ref": "35", "source": "massdot_import_081511"}}, {"type": "node", "id": 1408380716, "lat": 42.417404, "lon": -72.523819, "tags": {"attribution": "massDOT", "bus": "yes", "highway": "bus_stop", "name": "Pulpit Hill Rd 1", "network": "PVTA", "ref": "8024", "source": "massdot_import_081511"}}, {"type": "node", "id": 1408380717, "lat": 42.417179, "lon": -72.526733, "tags": {"attribution": "massDOT", "bus": "yes", "highway": "bus_stop", "name": "Pulpit Hill Rd 2", "network": "PVTA", "ref": "8025", "source": "massdot_import_081511"}}, {"type": "node", "id": 1408380720, "lat": 42.290661, "lon": -72.40834, "tags": {"attribution": "massDOT", "bus": "yes", "highway": "bus_stop", "name": "Quabbin Village (In)", "network": "PVTA", "ref": "276", "source": "massdot_import_081511"}}, {"type": "node", "id": 1408380721, "lat": 42.290298, "lon": -72.408112, "tags": {"attribution": "massDOT", "bus": "yes", "highway": "bus_stop", "name": "Quabbin Village (Out)", "network": "PVTA", "ref": "278", "shelter": "no", "source": "massdot_import_081511"}}, {"type": "node", "id": 1408380747, "lat": 42.343132, "lon": -72.581429, "tags": {"attribution": "massDOT", "bus": "yes", "departures_board": "no", "highway": "bus_stop", "name": "RUSSELL / EAST", "network": "PVTA", "network:wikidata": "Q7196828", "network:wikipedia": "en:Pioneer Valley Transit Authority", "public_transport": "platform", "ref": "169", "shelter": "no", "source": "massdot_import_081511"}}, {"type": "node", "id": 1408380750, "lat": 42.342201, "lon": -72.589355, "tags": {"attribution": "massDOT", "bus": "yes", "departures_board": "no", "highway": "bus_stop", "name": "RUSSELL / MIDDLE", "network": "PVTA", "network:wikidata": "Q7196828", "network:wikipedia": "en:Pioneer Valley Transit Authority", "public_transport": "platform", "ref": "172", "shelter": "no", "source": "massdot_import_081511"}}, {"type": "node", "id": 1408380751, "lat": 42.342346, "lon": -72.588676, "tags": {"attribution": "massDOT", "bus": "yes", "departures_board": "no", "highway": "bus_stop", "name": "RUSSELL / MIDDLE", "network": "PVTA", "network:wikidata": "Q7196828", "network:wikipedia": "en:Pioneer Valley Transit Authority", "public_transport": "platform", "ref": "171", "shelter": "no", "source": "massdot_import_081511"}}, {"type": "node", "id": 1408380752, "lat": 42.345749, "lon": -72.575462, "tags": {"attribution": "massDOT", "bus": "yes", "departures_board": "no", "highway": "bus_stop", "name": "RUSSELL / NASHUA", "network": "PVTA", "network:wikidata": "Q7196828", "network:wikipedia": "en:Pioneer Valley Transit Authority", "public_transport": "platform", "ref": "161", "shelter": "no", "source": "massdot_import_081511"}}, {"type": "node", "id": 1408380753, "lat": 42.347073, "lon": -72.572624, "tags": {"attribution": "massDOT", "bus": "yes", "departures_board": "no", "highway": "bus_stop", "name": "RUSSELL / SPRUCE HILL", "network": "PVTA", "network:wikidata": "Q7196828", "network:wikipedia": "en:Pioneer Valley Transit Authority", "public_transport": "platform", "ref": "159", "shelter": "no", "source": "massdot_import_081511"}}, {"type": "node", "id": 1408380754, "lat": 42.347115, "lon": -72.572372, "tags": {"attribution": "massDOT", "bus": "yes", "departures_board": "no", "highway": "bus_stop", "name": "RUSSELL / SPRUCE HILL", "network": "PVTA", "network:wikidata": "Q7196828", "network:wikipedia": "en:Pioneer Valley Transit Authority", "public_transport": "platform", "ref": "160", "shelter": "no", "source": "massdot_import_081511"}}, {"type": "node", "id": 1408380756, "lat": 42.341953, "lon": -72.594429, "tags": {"attribution": "massDOT", "bus": "yes", "highway": "bus_stop", "name": "RUSSELL / WEST", "network": "PVTA", "network:wikidata": "Q7196828", "network:wikipedia": "en:Pioneer Valley Transit Authority", "public_transport": "platform", "ref": "174", "source": "massdot_import_081511"}}, {"type": "node", "id": 1408380847, "lat": 42.362221, "lon": -72.488029, "tags": {"attribution": "massDOT", "bus": "yes", "highway": "bus_stop", "name": "Rolling Green (In)", "network": "PVTA", "public_transport": "platform", "ref": "135", "source": "massdot_import_081511"}}, {"type": "node", "id": 1408380848, "lat": 42.362854, "lon": -72.488739, "tags": {"attribution": "massDOT", "bus": "yes", "highway": "bus_stop", "name": "Rolling Green (Out)", "network": "PVTA", "ref": "134", "source": "massdot_import_081511"}}, {"type": "node", "id": 1408380877, "lat": 42.363682, "lon": -72.538857, "tags": {"attribution": "massDOT", "bus": "yes", "highway": "bus_stop", "name": "Russell/Campus Plaza (Pride)", "network": "PVTA", "ref": "130", "source": "massdot_import_081511"}}, {"type": "node", "id": 1408380878, "lat": 42.343769, "lon": -72.579468, "tags": {"attribution": "massDOT", "bus": "yes", "departures_board": "no", "highway": "bus_stop", "name": "Russell/East (RMV)", "network": "PVTA", "network:wikidata": "Q7196828", "network:wikipedia": "en:Pioneer Valley Transit Authority", "public_transport": "platform", "ref": "168", "shelter": "no", "source": "massdot_import_081511"}}, {"type": "node", "id": 1408380879, "lat": 42.345966, "lon": -72.574806, "tags": {"attribution": "massDOT", "bus": "yes", "departures_board": "no", "highway": "bus_stop", "name": "Russell/Pine Hill", "network": "PVTA", "network:wikidata": "Q7196828", "network:wikipedia": "en:Pioneer Valley Transit Authority", "public_transport": "platform", "ref": "162", "shelter": "no", "source": "massdot_import_081511"}}, {"type": "node", "id": 1408380880, "lat": 42.359985, "lon": -72.546738, "tags": {"attribution": "massDOT", "bus": "yes", "highway": "bus_stop", "name": "Russell/Rte 9 (Holiday Inn Express)", "network": "PVTA", "ref": "137", "source": "massdot_import_081511"}}, {"type": "node", "id": 1408380881, "lat": 42.361214, "lon": -72.543785, "tags": {"attribution": "massDOT", "bench": "no", "bin": "no", "bus": "yes", "highway": "bus_stop", "lit": "yes", "name": "Russell/Russell (Staples)", "network": "PVTA", "ref": "136", "shelter": "no", "source": "massdot_import_081511", "tactile_paving": "no"}}, {"type": "node", "id": 1408380882, "lat": 42.354649, "lon": -72.55722, "tags": {"attribution": "massDOT", "bus": "yes", "highway": "bus_stop", "name": "Russell/Russell (The Stables)", "network": "PVTA", "ref": "144", "source": "massdot_import_081511"}}, {"type": "node", "id": 1408380883, "lat": 42.354675, "lon": -72.556938, "tags": {"attribution": "massDOT", "bus": "yes", "highway": "bus_stop", "name": "Russell/Russell (Whole Foods)", "network": "PVTA", "ref": "146", "source": "massdot_import_081511"}}, {"type": "node", "id": 1408381401, "lat": 42.412655, "lon": -72.514381, "tags": {"attribution": "massDOT", "bus": "yes", "highway": "bus_stop", "name": "Sand Hill Road", "network": "PVTA", "ref": "8008", "source": "massdot_import_081511"}}, {"type": "node", "id": 1408381416, "lat": 42.397621, "lon": -72.527946, "tags": {"attribution": "massDOT", "bus": "yes", "highway": "bus_stop", "name": "School of Education", "network": "PVTA", "ref": "43", "source": "massdot_import_081511"}}, {"type": "node", "id": 1408381425, "lat": 42.4514514, "lon": -72.5627496, "tags": {"attribution": "massDOT", "bus": "yes", "highway": "bus_stop", "name": "Amherst Grove", "network": "PVTA", "public_transport": "platform", "ref": "12", "shelter": "yes", "source": "massdot_import_081511"}}, {"type": "node", "id": 1408381437, "lat": 42.350334, "lon": -72.519432, "tags": {"attribution": "massDOT", "bus": "yes", "highway": "bus_stop", "name": "Shays Street", "network": "PVTA", "ref": "155", "source": "massdot_import_081511"}}, {"type": "node", "id": 1408381439, "lat": 42.40213, "lon": -72.515343, "tags": {"attribution": "massDOT", "bus": "yes", "highway": "bus_stop", "name": "Sheerman Lane", "network": "PVTA", "ref": "39", "source": "massdot_import_081511"}}, {"type": "node", "id": 1408381454, "lat": 42.454792, "lon": -72.567802, "tags": {"attribution": "massDOT", "bus": "yes", "highway": "bus_stop", "name": "Silver Lane", "network": "PVTA", "ref": "10", "source": "massdot_import_081511"}}, {"type": "node", "id": 1408381472, "lat": 42.340923, "lon": -72.50489, "tags": {"attribution": "massDOT", "bus": "yes", "highway": "bus_stop", "name": "South Amherst Common", "network": "PVTA", "ref": "181", "source": "massdot_import_081511"}}, {"type": "node", "id": 1408381501, "lat": 42.350418, "lon": -72.530266, "tags": {"attribution": "massDOT", "bus": "yes", "highway": "bus_stop", "name": "Southpoint", "network": "PVTA", "ref": "153", "source": "massdot_import_081511"}}, {"type": "node", "id": 1408381502, "lat": 42.3846617, "lon": -72.5283627, "tags": {"attribution": "massDOT", "bus": "yes", "highway": "bus_stop", "name": "Southwest Shelter", "network": "PVTA", "ref": "78", "source": "massdot_import_081511"}}, {"type": "node", "id": 1408381503, "lat": 42.381779, "lon": -72.531731, "tags": {"attribution": "massDOT", "bus": "yes", "highway": "bus_stop", "name": "Southwest/University Drive (N)", "network": "PVTA", "ref": "87", "source": "massdot_import_081511"}}, {"type": "node", "id": 1408381504, "lat": 42.381737, "lon": -72.531837, "tags": {"attribution": "massDOT", "bus": "yes", "highway": "bus_stop", "name": "Southwest/University Drive (S)", "network": "PVTA", "ref": "86", "source": "massdot_import_081511"}}, {"type": "node", "id": 1408381569, "lat": 42.379955, "lon": -72.533981, "tags": {"attribution": "massDOT", "bus": "yes", "highway": "bus_stop", "name": "Stadium (N)", "network": "PVTA", "ref": "91", "source": "massdot_import_081511"}}, {"type": "node", "id": 1408381570, "lat": 42.379848, "lon": -72.534073, "tags": {"attribution": "massDOT", "bus": "yes", "highway": "bus_stop", "name": "Stadium (S)", "network": "PVTA", "ref": "92", "source": "massdot_import_081511"}}, {"type": "node", "id": 1408381615, "lat": 42.410637, "lon": -72.524292, "tags": {"attribution": "massDOT", "bus": "yes", "highway": "bus_stop", "name": "State Street", "network": "PVTA", "ref": "28", "source": "massdot_import_081511"}}, {"type": "node", "id": 1408381636, "lat": 42.367466, "lon": -72.479759, "tags": {"attribution": "massDOT", "bus": "yes", "highway": "bus_stop", "name": "Stony Hill (In)", "network": "PVTA", "ref": "12601", "source": "massdot_import_081511"}}, {"type": "node", "id": 1408381637, "lat": 42.367565, "lon": -72.479797, "tags": {"attribution": "massDOT", "bus": "yes", "highway": "bus_stop", "name": "Stony Hill (Out)", "network": "PVTA", "ref": "126", "source": "massdot_import_081511"}}, {"type": "node", "id": 1408381644, "lat": 42.365696, "lon": -72.538383, "tags": {"attribution": "massDOT", "bus": "yes", "highway": "bus_stop", "name": "Stop & Shop", "network": "PVTA", "ref": "127", "source": "massdot_import_081511"}}, {"type": "node", "id": 1408381704, "lat": 42.387646, "lon": -72.523499, "tags": {"attribution": "massDOT", "bus": "yes", "highway": "bus_stop", "name": "Studio Arts Building", "network": "PVTA", "ref": "72", "source": "massdot_import_081511"}}, {"type": "node", "id": 1408381705, "lat": 42.457664, "lon": -72.581467, "tags": {"attribution": "massDOT", "bus": "yes", "highway": "bus_stop", "name": "Sugarloaf Estates", "network": "PVTA", "ref": "9", "source": "massdot_import_081511"}}, {"type": "node", "id": 1408381716, "lat": 42.414101, "lon": -72.528435, "tags": {"attribution": "massDOT", "bus": "yes", "highway": "bus_stop", "name": "Summer Street (In)", "network": "PVTA", "ref": "99991", "source": "massdot_import_081511"}}, {"type": "node", "id": 1408381717, "lat": 42.414001, "lon": -72.528481, "tags": {"attribution": "massDOT", "bus": "yes", "highway": "bus_stop", "name": "Summer Street (Out)", "network": "PVTA", "ref": "23", "source": "massdot_import_081511"}}, {"type": "node", "id": 1408381755, "lat": 42.464993, "lon": -72.580261, "tags": {"attribution": "massDOT", "bus": "yes", "highway": "bus_stop", "name": "Sunderland Center", "network": "PVTA", "ref": "8006", "source": "massdot_import_081511"}}, {"type": "node", "id": 1408381758, "lat": 42.465, "lon": -72.580154, "tags": {"attribution": "massDOT", "bus": "yes", "highway": "bus_stop", "name": "Sunderland Center (S. Deerfield bound)", "network": "PVTA", "ref": "8009", "source": "massdot_import_081511"}}, {"type": "node", "id": 1408381785, "lat": 42.397179, "lon": -72.521599, "tags": {"attribution": "massDOT", "bus": "yes", "highway": "bus_stop", "name": "Sylvan (In)", "network": "PVTA", "ref": "44", "source": "massdot_import_081511"}}, {"type": "node", "id": 1408381786, "lat": 42.397102, "lon": -72.521545, "tags": {"attribution": "massDOT", "bus": "yes", "highway": "bus_stop", "name": "Sylvan (Out)", "network": "PVTA", "ref": "45", "source": "massdot_import_081511"}}, {"type": "node", "id": 1408381839, "lat": 42.376438, "lon": -72.486565, "tags": {"attribution": "massDOT", "bus": "yes", "highway": "bus_stop", "name": "Thayer Street (In)", "network": "PVTA", "ref": "9901", "source": "massdot_import_081511"}}, {"type": "node", "id": 1408381841, "lat": 42.376366, "lon": -72.48632, "tags": {"attribution": "massDOT", "bus": "yes", "highway": "bus_stop", "name": "Thayer Street (Out)", "network": "PVTA", "ref": "99", "source": "massdot_import_081511"}}, {"type": "node", "id": 1408381842, "lat": 42.349056, "lon": -72.528877, "tags": {"attribution": "massDOT", "bus": "yes", "highway": "bus_stop", "name": "The Boulders", "network": "PVTA", "ref": "157", "source": "massdot_import_081511"}}, {"type": "node", "id": 1408381845, "lat": 42.351509, "lon": -72.526543, "tags": {"attribution": "massDOT", "bus": "yes", "highway": "bus_stop", "name": "The Brook (In)", "network": "PVTA", "ref": "152", "source": "massdot_import_081511"}}, {"type": "node", "id": 1408381846, "lat": 42.351631, "lon": -72.52597, "tags": {"attribution": "massDOT", "bus": "yes", "highway": "bus_stop", "name": "The Brook (Out)", "network": "PVTA", "ref": "151", "source": "massdot_import_081511"}}, {"type": "node", "id": 1408381862, "lat": 42.3984114, "lon": -72.5162007, "tags": {"attribution": "massDOT", "bus": "yes", "highway": "bus_stop", "name": "Tilson Farm (In)", "network": "PVTA", "ref": "41", "source": "massdot_import_081511"}}, {"type": "node", "id": 1408381864, "lat": 42.398346, "lon": -72.516068, "tags": {"attribution": "massDOT", "bus": "yes", "highway": "bus_stop", "name": "Tilson Farm (Out)", "network": "PVTA", "ref": "40", "source": "massdot_import_081511"}}, {"type": "node", "id": 1408381904, "lat": 42.395744, "lon": -72.525383, "tags": {"attribution": "massDOT", "bus": "yes", "highway": "bus_stop", "name": "Totman Gym (In)", "network": "PVTA", "ref": "46", "source": "massdot_import_081511"}}, {"type": "node", "id": 1408381905, "lat": 42.395676, "lon": -72.525284, "tags": {"attribution": "massDOT", "bus": "yes", "highway": "bus_stop", "name": "Totman Gym (Out)", "network": "PVTA", "ref": "47", "source": "massdot_import_081511"}}, {"type": "node", "id": 1408381911, "lat": 42.409622, "lon": -72.533463, "tags": {"attribution": "massDOT", "bus": "yes", "departures_board": "no", "highway": "bus_stop", "name": "Townehouse (In)", "network": "PVTA", "public_transport": "platform", "ref": "30", "shelter": "yes", "source": "massdot_import_081511"}}, {"type": "node", "id": 1408381912, "lat": 42.409672, "lon": -72.533524, "tags": {"attribution": "massDOT", "bus": "yes", "departures_board": "no", "highway": "bus_stop", "name": "Townehouse (Out)", "network": "PVTA", "public_transport": "platform", "ref": "29", "shelter": "no", "source": "massdot_import_081511"}}, {"type": "node", "id": 1408381913, "lat": 42.338165, "lon": -72.523636, "tags": {"attribution": "massDOT", "bus": "yes", "highway": "bus_stop", "name": "Tracy Circle (E)", "network": "PVTA", "ref": "195", "source": "massdot_import_081511"}}, {"type": "node", "id": 1408381914, "lat": 42.33852, "lon": -72.528069, "tags": {"attribution": "massDOT", "bus": "yes", "highway": "bus_stop", "name": "Tracy Circle (W)", "network": "PVTA", "ref": "193", "source": "massdot_import_081511"}}, {"type": "node", "id": 1408381919, "lat": 42.3820033, "lon": -72.5190946, "tags": {"attribution": "massDOT", "bus": "yes", "highway": "bus_stop", "name": "Triangle Street (In)", "network": "PVTA", "public_transport": "platform", "ref": "88", "source": "massdot_import_081511"}}, {"type": "node", "id": 1408381920, "lat": 42.3819567, "lon": -72.5193183, "tags": {"attribution": "massDOT", "bus": "yes", "highway": "bus_stop", "name": "Triangle Street (N)", "network": "PVTA", "public_transport": "platform", "ref": "85", "source": "massdot_import_081511"}}, {"type": "node", "id": 1408381933, "lat": 42.3871729, "lon": -72.5264878, "tags": {"attribution": "massDOT", "bus": "yes", "highway": "bus_stop", "name": "UMASS / Amherst", "network": "FRTA", "public_transport": "platform", "ref": "S16", "source": "massdot_import_081511"}}, {"type": "node", "id": 1408381935, "lat": 42.393753, "lon": -72.533012, "tags": {"attribution": "massDOT", "bench": "yes", "bus": "yes", "departures_board": "no", "highway": "bus_stop", "name": "UMass Bus Garage", "network": "PVTA", "public_transport": "platform", "ref": "8001", "shelter": "no", "source": "massdot_import_081511"}}, {"type": "node", "id": 1408381980, "lat": 42.356674, "lon": -72.485382, "tags": {"attribution": "massDOT", "bus": "yes", "highway": "bus_stop", "name": "Valley Medical", "network": "PVTA", "ref": "141", "source": "massdot_import_081511"}}, {"type": "node", "id": 1408382024, "lat": 42.3948258, "lon": -72.5155856, "tags": {"attribution": "massDOT", "bus": "yes", "highway": "bus_stop", "name": "Village Park (N)", "network": "PVTA", "public_transport": "platform", "ref": "54", "source": "massdot_import_081511"}}, {"type": "node", "id": 1408382033, "lat": 42.394657, "lon": -72.515717, "tags": {"attribution": "massDOT", "bus": "yes", "highway": "bus_stop", "name": "Village Park (S)", "network": "PVTA", "ref": "53", "source": "massdot_import_081511"}}, {"type": "node", "id": 1408382111, "lat": 42.385203, "lon": -72.5253194, "tags": {"attribution": "massDOT", "bus": "yes", "highway": "bus_stop", "name": "Visitors Center", "network": "PVTA", "ref": "75", "source": "massdot_import_081511"}}, {"type": "node", "id": 1408382856, "lat": 42.3849708, "lon": -72.5282364, "tags": {"attribution": "massDOT", "bus": "yes", "highway": "bus_stop", "name": "WFCR", "network": "PVTA", "ref": "77", "source": "massdot_import_081511"}}, {"type": "node", "id": 1408383136, "lat": 42.345501, "lon": -72.467125, "tags": {"attribution": "massDOT", "bus": "yes", "highway": "bus_stop", "name": "Warren Wright Road (In)", "network": "PVTA", "ref": "165", "source": "massdot_import_081511"}}, {"type": "node", "id": 1408383137, "lat": 42.3456, "lon": -72.467339, "tags": {"attribution": "massDOT", "bus": "yes", "highway": "bus_stop", "name": "Warren Wright Road (Out)", "network": "PVTA", "ref": "164", "source": "massdot_import_081511"}}, {"type": "node", "id": 1408383206, "lat": 42.347862, "lon": -72.512688, "tags": {"attribution": "massDOT", "bus": "yes", "highway": "bus_stop", "name": "Wentworth Drive", "network": "PVTA", "ref": "158", "source": "massdot_import_081511"}}, {"type": "node", "id": 1408383365, "lat": 42.392387, "lon": -72.536118, "tags": {"attribution": "massDOT", "bus": "yes", "highway": "bus_stop", "name": "Yellow Lot 12", "network": "PVTA", "ref": "61", "source": "massdot_import_081511"}}, {"type": "node", "id": 1747137864, "lat": 42.351565, "lon": -72.5636431, "tags": {"bench": "yes", "bus": "yes", "fixme": "what bus routes stop here?", "highway": "bus_stop", "name": "PVTA", "public_transport": "platform", "shelter": "yes"}}, {"type": "node", "id": 2296737871, "lat": 42.3748909, "lon": -72.5325746, "tags": {"bench": "no", "highway": "bus_stop", "operator": "PVTA", "shelter": "no", "tactile_paving": "no"}}, {"type": "node", "id": 2296737872, "lat": 42.3749063, "lon": -72.5327228, "tags": {"bench": "no", "highway": "bus_stop", "operator": "PVTA", "shelter": "no", "tactile_paving": "no"}}, {"type": "node", "id": 6219389168, "lat": 42.3260471, "lon": -72.53203, "tags": {"attribution": "massDOT", "bus": "yes", "highway": "bus_stop", "name": "Hampshire College", "network": "PVTA", "ref": "236", "source": "massdot_import_081511", "wheelchair": "limited"}}, {"type": "node", "id": 7961906035, "lat": 42.3564969, "lon": -72.553824, "tags": {"bus": "yes", "highway": "bus_stop", "public_transport": "platform"}}, {"type": "node", "id": 8454338981, "lat": 42.4151373, "lon": -72.5298143, "tags": {"bus": "yes", "highway": "bus_stop", "name": "Mill District", "network": "PVTA 33", "operator": "PVTA", "public_transport": "platform"}}, {"type": "node", "id": 8454338982, "lat": 42.41466, "lon": -72.5325843, "tags": {"bus": "yes", "highway": "bus_stop", "name": "Amherst Survival Center", "network": "PVTA 33", "operator": "PVTA", "public_transport": "platform"}}, {"type": "node", "id": 8520867642, "lat": 42.4522129, "lon": -72.5635279, "tags": {"attribution": "massDOT", "bus": "yes", "highway": "bus_stop", "name": "Cliffside Apartments", "network": "PVTA", "public_transport": "platform", "shelter": "no", "source": "massdot_import_081511"}}]}