{"version": 0.6, "generator": "Overpass API 0.7.59.2 0994154d", "osm3s": {"timestamp_osm_base": "2023-02-23T16:29:53Z", "copyright": "The data included in this document is from www.openstreetmap.org. The data is made available under ODbL."}, "elements": [{"type": "node", "id": 1336005879, "lat": 42.1061668, "lon": -72.5939247}, {"type": "node", "id": 1408370483, "lat": 42.101624, "lon": -72.566399, "tags": {"attribution": "massDOT", "bus": "yes", "highway": "bus_stop", "name": "ALDEN / HANCOCK", "network": "PVTA", "ref": "1497", "source": "massdot_import_081511"}}, {"type": "node", "id": 1408370484, "lat": 42.102306, "lon": -72.560318, "tags": {"attribution": "massDOT", "bus": "yes", "highway": "bus_stop", "name": "ALDEN / SHEFFIELD", "network": "PVTA", "ref": "1485", "source": "massdot_import_081511"}}, {"type": "node", "id": 1408370485, "lat": 42.091068, "lon": -72.530251, "tags": {"attribution": "massDOT", "bus": "yes", "highway": "bus_stop", "name": "ALLEN / ACCESS", "network": "PVTA", "ref": "1675", "source": "massdot_import_081511"}}, {"type": "node", "id": 1408370486, "lat": 42.093407, "lon": -72.551598, "tags": {"attribution": "massDOT", "bus": "yes", "highway": "bus_stop", "name": "ALLEN / ALBERTA", "network": "PVTA", "ref": "1609", "source": "massdot_import_081511"}}, {"type": "node", "id": 1408370487, "lat": 42.093582, "lon": -72.552811, "tags": {"attribution": "massDOT", "bus": "yes", "highway": "bus_stop", "name": "ALLEN / ALBERTA", "network": "PVTA", "ref": "1608", "source": "massdot_import_081511"}}, {"type": "node", "id": 1408370488, "lat": 42.093712, "lon": -72.505898, "tags": {"attribution": "massDOT", "bus": "yes", "highway": "bus_stop", "name": "ALLEN / ALLEN PARK", "network": "PVTA", "ref": "1619", "source": "massdot_import_081511"}}, {"type": "node", "id": 1408370489, "lat": 42.092979, "lon": -72.549339, "tags": {"attribution": "massDOT", "bus": "yes", "highway": "bus_stop", "name": "ALLEN / CALIFORNIA", "network": "PVTA", "ref": "1626", "source": "massdot_import_081511"}}, {"type": "node", "id": 1408370490, "lat": 42.092991, "lon": -72.520767, "tags": {"attribution": "massDOT", "bus": "yes", "highway": "bus_stop", "name": "ALLEN / CORCORAN", "network": "PVTA", "ref": "1633", "source": "massdot_import_081511"}}, {"type": "node", "id": 1408370493, "lat": 42.092731, "lon": -72.54834, "tags": {"attribution": "massDOT", "bus": "yes", "highway": "bus_stop", "name": "ALLEN / DELL", "network": "PVTA", "ref": "1634", "source": "massdot_import_081511"}}, {"type": "node", "id": 1408370497, "lat": 42.092453, "lon": -72.522934, "tags": {"attribution": "massDOT", "bus": "yes", "highway": "bus_stop", "name": "ALLEN / HARBOUR", "network": "PVTA", "ref": "1649", "source": "massdot_import_081511"}}, {"type": "node", "id": 1408370502, "lat": 42.096573, "lon": -72.562515, "tags": {"attribution": "massDOT", "bus": "yes", "highway": "bus_stop", "name": "ALLEN / MALDEN", "network": "PVTA", "ref": "1555", "source": "massdot_import_081511"}}, {"type": "node", "id": 1408370507, "lat": 42.096626, "lon": -72.562027, "tags": {"attribution": "massDOT", "bus": "yes", "highway": "bus_stop", "name": "ALLEN / MALDEN", "network": "PVTA", "ref": "1554", "source": "massdot_import_081511"}}, {"type": "node", "id": 1408370512, "lat": 42.09269, "lon": -72.547707, "tags": {"attribution": "massDOT", "bus": "yes", "highway": "bus_stop", "name": "ALLEN / MANDALAY", "network": "PVTA", "ref": "1638", "source": "massdot_import_081511"}}, {"type": "node", "id": 1408370516, "lat": 42.091843, "lon": -72.525261, "tags": {"attribution": "massDOT", "bus": "yes", "highway": "bus_stop", "name": "ALLEN / MANOR", "network": "PVTA", "ref": "1663", "source": "massdot_import_081511"}}, {"type": "node", "id": 1408370518, "lat": 42.094688, "lon": -72.513748, "tags": {"attribution": "massDOT", "bus": "yes", "highway": "bus_stop", "name": "ALLEN / TALMADGE", "network": "PVTA", "ref": "1591", "source": "massdot_import_081511"}}, {"type": "node", "id": 1408370519, "lat": 42.094116, "lon": -72.515793, "tags": {"attribution": "massDOT", "bus": "yes", "highway": "bus_stop", "name": "ALLEN / WACHUSETT", "network": "PVTA", "ref": "6371", "source": "massdot_import_081511"}}, {"type": "node", "id": 1408370520, "lat": 42.0923, "lon": -72.54612, "tags": {"attribution": "massDOT", "bus": "yes", "highway": "bus_stop", "name": "ALLEN / WAYNE", "network": "PVTA", "ref": "1647", "source": "massdot_import_081511"}}, {"type": "node", "id": 1408370521, "lat": 42.092377, "lon": -72.546097, "tags": {"attribution": "massDOT", "bus": "yes", "highway": "bus_stop", "name": "ALLEN / WAYNE", "network": "PVTA", "ref": "1645", "source": "massdot_import_081511"}}, {"type": "node", "id": 1408370522, "lat": 42.094288, "lon": -72.508415, "tags": {"attribution": "massDOT", "bus": "yes", "highway": "bus_stop", "name": "ALLEN / WILSHIRE", "network": "PVTA", "ref": "1597", "source": "massdot_import_081511"}}, {"type": "node", "id": 1408370557, "lat": 42.101948, "lon": -72.563698, "tags": {"attribution": "massDOT", "bus": "yes", "highway": "bus_stop", "name": "Alden/Eastern (1)", "network": "PVTA", "ref": "1493", "source": "massdot_import_081511"}}, {"type": "node", "id": 1408370558, "lat": 42.102058, "lon": -72.562447, "tags": {"attribution": "massDOT", "bus": "yes", "highway": "bus_stop", "name": "Alden/Eastern (2)", "network": "PVTA", "ref": "1491", "source": "massdot_import_081511"}}, {"type": "node", "id": 1408370560, "lat": 42.093788, "lon": -72.50589, "tags": {"attribution": "massDOT", "bus": "yes", "highway": "bus_stop", "name": "Allen/Allen Park (inbound)", "network": "PVTA", "ref": "1612", "source": "massdot_import_081511"}}, {"type": "node", "id": 1408370561, "lat": 42.094822, "lon": -72.51004, "tags": {"attribution": "massDOT", "bus": "yes", "highway": "bus_stop", "name": "Allen/Bicentennial", "network": "PVTA", "ref": "1588", "source": "massdot_import_081511"}}, {"type": "node", "id": 1408370562, "lat": 42.094753, "lon": -72.509605, "tags": {"attribution": "massDOT", "bench": "no", "bin": "no", "bus": "yes", "highway": "bus_stop", "name": "Allen/Bicentennial (inbound)", "network": "PVTA", "ref": "1589", "shelter": "no", "source": "massdot_import_081511"}}, {"type": "node", "id": 1408370563, "lat": 42.094646, "lon": -72.514618, "tags": {"attribution": "massDOT", "bus": "yes", "highway": "bus_stop", "name": "Allen/Bridlepath", "network": "PVTA", "ref": "1593", "source": "massdot_import_081511"}}, {"type": "node", "id": 1408370564, "lat": 42.094315, "lon": -72.508263, "tags": {"attribution": "massDOT", "bus": "yes", "highway": "bus_stop", "name": "Allen/Wilshire (inbound)", "network": "PVTA", "ref": "1594", "source": "massdot_import_081511"}}, {"type": "node", "id": 1408370572, "lat": 42.113014, "lon": -72.559273, "tags": {"attribution": "massDOT", "bus": "yes", "highway": "bus_stop", "name": "American International College", "network": "PVTA", "ref": "1263", "source": "massdot_import_081511"}}, {"type": "node", "id": 1408370573, "lat": 42.113338, "lon": -72.558754, "tags": {"attribution": "massDOT", "bus": "yes", "highway": "bus_stop", "name": "American International College", "network": "PVTA", "ref": "1253", "source": "massdot_import_081511"}}, {"type": "node", "id": 1408371012, "lat": 42.123642, "lon": -72.560097, "tags": {"attribution": "massDOT", "bus": "yes", "highway": "bus_stop", "name": "BAY / ASTER", "network": "PVTA", "ref": "1009", "source": "massdot_import_081511"}}, {"type": "node", "id": 1408371023, "lat": 42.12397, "lon": -72.559937, "tags": {"attribution": "massDOT", "bus": "yes", "highway": "bus_stop", "name": "BAY / ASTER", "network": "PVTA", "ref": "1001", "source": "massdot_import_081511"}}, {"type": "node", "id": 1408371033, "lat": 42.132603, "lon": -72.54361, "tags": {"attribution": "massDOT", "bus": "yes", "highway": "bus_stop", "name": "BAY / BAY PATH", "network": "PVTA", "ref": "905", "source": "massdot_import_081511"}}, {"type": "node", "id": 1408371046, "lat": 42.125675, "lon": -72.558899, "tags": {"attribution": "massDOT", "bus": "yes", "highway": "bus_stop", "name": "BAY / BAYWOOD", "network": "PVTA", "ref": "981", "source": "massdot_import_081511"}}, {"type": "node", "id": 1408371071, "lat": 42.12595, "lon": -72.558838, "tags": {"attribution": "massDOT", "bus": "yes", "highway": "bus_stop", "name": "BAY / BAYWOOD", "network": "PVTA", "ref": "977", "source": "massdot_import_081511"}}, {"type": "node", "id": 1408371077, "lat": 42.128075, "lon": -72.557762, "tags": {"attribution": "massDOT", "bus": "yes", "highway": "bus_stop", "name": "BAY / BLUNT PARK", "network": "PVTA", "ref": "954", "source": "massdot_import_081511"}}, {"type": "node", "id": 1408371102, "lat": 42.129944, "lon": -72.555489, "tags": {"attribution": "massDOT", "bus": "yes", "highway": "bus_stop", "name": "BAY / BLUNT PARK", "network": "PVTA", "ref": "944", "source": "massdot_import_081511"}}, {"type": "node", "id": 1408371109, "lat": 42.130245, "lon": -72.555206, "tags": {"attribution": "massDOT", "bus": "yes", "highway": "bus_stop", "name": "BAY / BLUNT PARK", "network": "PVTA", "ref": "942", "source": "massdot_import_081511"}}, {"type": "node", "id": 1408371112, "lat": 42.116333, "lon": -72.567032, "tags": {"attribution": "massDOT", "bus": "yes", "highway": "bus_stop", "name": "BAY / BOWLES", "network": "PVTA", "ref": "1151", "source": "massdot_import_081511"}}, {"type": "node", "id": 1408371139, "lat": 42.11422, "lon": -72.568954, "tags": {"attribution": "massDOT", "bus": "yes", "highway": "bus_stop", "name": "BAY / BUCKINGHAM", "network": "PVTA", "ref": "1211", "source": "massdot_import_081511"}}, {"type": "node", "id": 1408371150, "lat": 42.114456, "lon": -72.568626, "tags": {"attribution": "massDOT", "bus": "yes", "highway": "bus_stop", "name": "BAY / BUCKINGHAM", "network": "PVTA", "ref": "1213", "source": "massdot_import_081511"}}, {"type": "node", "id": 1408371168, "lat": 42.115196, "lon": -72.568077, "tags": {"attribution": "massDOT", "bus": "yes", "highway": "bus_stop", "name": "BAY / CLARENDON", "network": "PVTA", "ref": "1191", "source": "massdot_import_081511"}}, {"type": "node", "id": 1408371171, "lat": 42.118298, "lon": -72.565079, "tags": {"attribution": "massDOT", "bus": "yes", "highway": "bus_stop", "name": "BAY / CLIFFORD", "network": "PVTA", "ref": "1108", "source": "massdot_import_081511"}}, {"type": "node", "id": 1408371192, "lat": 42.118366, "lon": -72.564987, "tags": {"attribution": "massDOT", "bus": "yes", "highway": "bus_stop", "name": "BAY / CLIFFORD", "network": "PVTA", "ref": "1106", "source": "massdot_import_081511"}}, {"type": "node", "id": 1408371200, "lat": 42.116222, "lon": -72.567009, "tags": {"attribution": "massDOT", "bus": "yes", "highway": "bus_stop", "name": "BAY / DARTMOUTH", "network": "PVTA", "ref": "1168", "source": "massdot_import_081511"}}, {"type": "node", "id": 1408371224, "lat": 42.118923, "lon": -72.564568, "tags": {"attribution": "massDOT", "bus": "yes", "highway": "bus_stop", "name": "BAY / DAWES", "network": "PVTA", "ref": "1096", "source": "massdot_import_081511"}}, {"type": "node", "id": 1408371227, "lat": 42.121758, "lon": -72.56179, "tags": {"attribution": "massDOT", "bus": "yes", "highway": "bus_stop", "name": "BAY / EDGEWOOD", "network": "PVTA", "ref": "1035", "source": "massdot_import_081511"}}, {"type": "node", "id": 1408371239, "lat": 42.121815, "lon": -72.5616, "tags": {"attribution": "massDOT", "bus": "yes", "highway": "bus_stop", "name": "BAY / EDGEWOOD", "network": "PVTA", "ref": "1036", "source": "massdot_import_081511"}}, {"type": "node", "id": 1408371248, "lat": 42.124485, "lon": -72.559517, "tags": {"attribution": "massDOT", "bus": "yes", "highway": "bus_stop", "name": "BAY / GOLDENROD", "network": "PVTA", "ref": "997", "source": "massdot_import_081511"}}, {"type": "node", "id": 1408371260, "lat": 42.13245, "lon": -72.540154, "tags": {"attribution": "massDOT", "bus": "yes", "highway": "bus_stop", "name": "BAY / HASKIN", "network": "PVTA", "ref": "910", "source": "massdot_import_081511"}}, {"type": "node", "id": 1408371286, "lat": 42.132557, "lon": -72.540474, "tags": {"attribution": "massDOT", "bus": "yes", "highway": "bus_stop", "name": "BAY / HASKIN", "network": "PVTA", "ref": "908", "source": "massdot_import_081511"}}, {"type": "node", "id": 1408371305, "lat": 42.132626, "lon": -72.542336, "tags": {"attribution": "massDOT", "bus": "yes", "highway": "bus_stop", "name": "BAY / HOOD", "network": "PVTA", "ref": "904", "source": "massdot_import_081511"}}, {"type": "node", "id": 1408371310, "lat": 42.13274, "lon": -72.541862, "tags": {"attribution": "massDOT", "bus": "yes", "highway": "bus_stop", "name": "BAY / HOOD", "network": "PVTA", "ref": "903", "source": "massdot_import_081511"}}, {"type": "node", "id": 1408371316, "lat": 42.13155, "lon": -72.537247, "tags": {"attribution": "massDOT", "bus": "yes", "highway": "bus_stop", "name": "BAY / JASPER", "network": "PVTA", "ref": "925", "source": "massdot_import_081511"}}, {"type": "node", "id": 1408371320, "lat": 42.131641, "lon": -72.537277, "tags": {"attribution": "massDOT", "bus": "yes", "highway": "bus_stop", "name": "BAY / JASPER", "network": "PVTA", "ref": "924", "source": "massdot_import_081511"}}, {"type": "node", "id": 1408371330, "lat": 42.120064, "lon": -72.563423, "tags": {"attribution": "massDOT", "bus": "yes", "highway": "bus_stop", "name": "BAY / OAK GROVE", "network": "PVTA", "ref": "1065", "source": "massdot_import_081511"}}, {"type": "node", "id": 1408371334, "lat": 42.120285, "lon": -72.563103, "tags": {"attribution": "massDOT", "bus": "yes", "highway": "bus_stop", "name": "BAY / OAK GROVE", "network": "PVTA", "ref": "1070", "source": "massdot_import_081511"}}, {"type": "node", "id": 1408371339, "lat": 42.111282, "lon": -72.571793, "tags": {"attribution": "massDOT", "bus": "yes", "highway": "bus_stop", "name": "BAY / PLEASANT", "network": "PVTA", "ref": "1312", "source": "massdot_import_081511"}}, {"type": "node", "id": 1408371344, "lat": 42.117836, "lon": -72.565628, "tags": {"attribution": "massDOT", "bus": "yes", "highway": "bus_stop", "name": "BAY / PRINCETON", "network": "PVTA", "ref": "1114", "source": "massdot_import_081511"}}, {"type": "node", "id": 1408371366, "lat": 42.11013, "lon": -72.573837, "tags": {"attribution": "massDOT", "bus": "yes", "highway": "bus_stop", "name": "BAY / SAINT JAMES", "network": "PVTA", "ref": "1331", "source": "massdot_import_081511"}}, {"type": "node", "id": 1408371373, "lat": 42.110195, "lon": -72.573586, "tags": {"attribution": "massDOT", "bus": "yes", "highway": "bus_stop", "name": "BAY / SAINT JAMES", "network": "PVTA", "ref": "1330", "source": "massdot_import_081511"}}, {"type": "node", "id": 1408371381, "lat": 42.131535, "lon": -72.550575, "tags": {"attribution": "massDOT", "bus": "yes", "highway": "bus_stop", "name": "BAY / UNNAMED STREET", "network": "PVTA", "ref": "922", "source": "massdot_import_081511"}}, {"type": "node", "id": 1408371393, "lat": 42.131714, "lon": -72.549469, "tags": {"attribution": "massDOT", "bus": "yes", "highway": "bus_stop", "name": "BAY / UNNAMED STREET", "network": "PVTA", "ref": "917", "source": "massdot_import_081511"}}, {"type": "node", "id": 1408371407, "lat": 42.116936, "lon": -72.566376, "tags": {"attribution": "massDOT", "bus": "yes", "highway": "bus_stop", "name": "BAY / WELCOME", "network": "PVTA", "ref": "1141", "source": "massdot_import_081511"}}, {"type": "node", "id": 1408371412, "lat": 42.112782, "lon": -72.570267, "tags": {"attribution": "massDOT", "bus": "yes", "highway": "bus_stop", "name": "BAY / WESTMINSTER", "network": "PVTA", "ref": "1266", "source": "massdot_import_081511"}}, {"type": "node", "id": 1408371420, "lat": 42.112934, "lon": -72.57003, "tags": {"attribution": "massDOT", "bus": "yes", "highway": "bus_stop", "name": "BAY / WESTMINSTER", "network": "PVTA", "ref": "1269", "source": "massdot_import_081511"}}, {"type": "node", "id": 1408371460, "lat": 42.131397, "lon": -72.504295, "tags": {"attribution": "massDOT", "bus": "yes", "highway": "bus_stop", "name": "BEACON / DRIVEWAY", "network": "PVTA", "ref": "951", "source": "massdot_import_081511"}}, {"type": "node", "id": 1408371529, "lat": 42.157932, "lon": -72.58033, "tags": {"attribution": "massDOT", "bus": "yes", "highway": "bus_stop", "name": "BELCHER / MAPLE", "network": "PVTA", "ref": "673", "source": "massdot_import_081511"}}, {"type": "node", "id": 1408371537, "lat": 42.086964, "lon": -72.562004, "tags": {"attribution": "massDOT", "bus": "yes", "highway": "bus_stop", "name": "BELMONT / BEAUMONT", "network": "PVTA", "ref": "1727", "source": "massdot_import_081511"}}, {"type": "node", "id": 1408371544, "lat": 42.088581, "lon": -72.571274, "tags": {"attribution": "massDOT", "bus": "yes", "highway": "bus_stop", "name": "BELMONT / BELLEVUE", "network": "PVTA", "ref": "1703", "source": "massdot_import_081511"}}, {"type": "node", "id": 1408371551, "lat": 42.088768, "lon": -72.5718, "tags": {"attribution": "massDOT", "bus": "yes", "highway": "bus_stop", "name": "BELMONT / BELLEVUE", "network": "PVTA", "ref": "1700", "source": "massdot_import_081511"}}, {"type": "node", "id": 1408371563, "lat": 42.083679, "lon": -72.544655, "tags": {"attribution": "massDOT", "bench": "no", "bin": "no", "bus": "yes", "highway": "bus_stop", "lit": "yes", "name": "BELMONT / FOUNTAIN", "network": "PVTA", "ref": "1777", "shelter": "no", "source": "massdot_import_081511", "tactile_paving": "no"}}, {"type": "node", "id": 1408371570, "lat": 42.087914, "lon": -72.567177, "tags": {"attribution": "massDOT", "bus": "yes", "highway": "bus_stop", "name": "BELMONT / HALL", "network": "PVTA", "ref": "1714", "source": "massdot_import_081511"}}, {"type": "node", "id": 1408371577, "lat": 42.085205, "lon": -72.553055, "tags": {"attribution": "massDOT", "bus": "yes", "highway": "bus_stop", "name": "BELMONT / HOLLYWOOD", "network": "PVTA", "ref": "1755", "source": "massdot_import_081511"}}, {"type": "node", "id": 1408371583, "lat": 42.089622, "lon": -72.575615, "tags": {"attribution": "massDOT", "bus": "yes", "highway": "bus_stop", "name": "BELMONT / LEYFRED", "network": "PVTA", "ref": "1688", "source": "massdot_import_081511"}}, {"type": "node", "id": 1408371589, "lat": 42.085098, "lon": -72.551674, "tags": {"attribution": "massDOT", "bus": "yes", "highway": "bus_stop", "name": "BELMONT / ORLANDO", "network": "PVTA", "ref": "1757", "source": "massdot_import_081511"}}, {"type": "node", "id": 1408371598, "lat": 42.085579, "lon": -72.554977, "tags": {"attribution": "massDOT", "bus": "yes", "highway": "bus_stop", "name": "BELMONT / ORMOND", "network": "PVTA", "ref": "1750", "source": "massdot_import_081511"}}, {"type": "node", "id": 1408371605, "lat": 42.086353, "lon": -72.55928, "tags": {"attribution": "massDOT", "bus": "yes", "highway": "bus_stop", "name": "BELMONT / RAMP", "network": "PVTA", "ref": "1737", "source": "massdot_import_081511"}}, {"type": "node", "id": 1408371612, "lat": 42.089043, "lon": -72.573822, "tags": {"attribution": "massDOT", "bus": "yes", "highway": "bus_stop", "name": "BELMONT / WOODSIDE", "network": "PVTA", "ref": "1695", "source": "massdot_import_081511"}}, {"type": "node", "id": 1408371618, "lat": 42.089184, "lon": -72.573662, "tags": {"attribution": "massDOT", "bus": "yes", "highway": "bus_stop", "name": "BELMONT / WOODSIDE", "network": "PVTA", "ref": "1698", "source": "massdot_import_081511"}}, {"type": "node", "id": 1408371636, "lat": 42.142429, "lon": -72.523598, "tags": {"attribution": "massDOT", "bus": "yes", "highway": "bus_stop", "name": "BERKSHIRE / BABBIN", "network": "PVTA", "ref": "791", "source": "massdot_import_081511"}}, {"type": "node", "id": 1408371645, "lat": 42.131107, "lon": -72.534485, "tags": {"attribution": "massDOT", "bus": "yes", "highway": "bus_stop", "name": "BERKSHIRE / BAY", "network": "PVTA", "ref": "934", "source": "massdot_import_081511"}}, {"type": "node", "id": 1408371654, "lat": 42.156311, "lon": -72.511086, "tags": {"attribution": "massDOT", "bus": "yes", "highway": "bus_stop", "name": "BERKSHIRE / BERKSHIRE", "network": "PVTA", "ref": "696", "source": "massdot_import_081511"}}, {"type": "node", "id": 1408371662, "lat": 42.14518, "lon": -72.521545, "tags": {"attribution": "massDOT", "bus": "yes", "highway": "bus_stop", "name": "BERKSHIRE / CHAMPLAIN", "network": "PVTA", "ref": "765", "source": "massdot_import_081511"}}, {"type": "node", "id": 1408371678, "lat": 42.157143, "lon": -72.508789, "tags": {"attribution": "massDOT", "bus": "yes", "highway": "bus_stop", "name": "BERKSHIRE / CHESTNUT", "network": "PVTA", "ref": "684", "source": "massdot_import_081511"}}, {"type": "node", "id": 1408371688, "lat": 42.157207, "lon": -72.508125, "tags": {"attribution": "massDOT", "bus": "yes", "highway": "bus_stop", "name": "BERKSHIRE / CHESTNUT", "network": "PVTA", "ref": "683", "source": "massdot_import_081511"}}, {"type": "node", "id": 1408371694, "lat": 42.141911, "lon": -72.523621, "tags": {"attribution": "massDOT", "bus": "yes", "highway": "bus_stop", "name": "BERKSHIRE / COTTAGE", "network": "PVTA", "ref": "796", "source": "massdot_import_081511"}}, {"type": "node", "id": 1408371698, "lat": 42.137085, "lon": -72.527702, "tags": {"attribution": "massDOT", "bus": "yes", "highway": "bus_stop", "name": "BERKSHIRE / DEWEY", "network": "PVTA", "ref": "859", "source": "massdot_import_081511"}}, {"type": "node", "id": 1408371714, "lat": 42.150898, "lon": -72.51606, "tags": {"attribution": "massDOT", "bus": "yes", "highway": "bus_stop", "name": "BERKSHIRE / DUTTON", "network": "PVTA", "ref": "716", "source": "massdot_import_081511"}}, {"type": "node", "id": 1408371724, "lat": 42.133427, "lon": -72.533142, "tags": {"attribution": "massDOT", "bus": "yes", "highway": "bus_stop", "name": "BERKSHIRE / EGAN", "network": "PVTA", "ref": "896", "source": "massdot_import_081511"}}, {"type": "node", "id": 1408371737, "lat": 42.135132, "lon": -72.530396, "tags": {"attribution": "massDOT", "bus": "yes", "highway": "bus_stop", "name": "BERKSHIRE / ELIZABETH", "network": "PVTA", "ref": "883", "source": "massdot_import_081511"}}, {"type": "node", "id": 1408371745, "lat": 42.135513, "lon": -72.530075, "tags": {"attribution": "massDOT", "bus": "yes", "highway": "bus_stop", "name": "BERKSHIRE / ELIZABETH", "network": "PVTA", "ref": "874", "source": "massdot_import_081511"}}, {"type": "node", "id": 1408371788, "lat": 42.136051, "lon": -72.52916, "tags": {"attribution": "massDOT", "bus": "yes", "highway": "bus_stop", "name": "BERKSHIRE / ELIZABETH", "network": "PVTA", "ref": "867", "source": "massdot_import_081511"}}, {"type": "node", "id": 1408371797, "lat": 42.136993, "lon": -72.528069, "tags": {"attribution": "massDOT", "bus": "yes", "highway": "bus_stop", "name": "BERKSHIRE / ELIZABETH", "network": "PVTA", "ref": "861", "source": "massdot_import_081511"}}, {"type": "node", "id": 1408371812, "lat": 42.154488, "lon": -72.512993, "tags": {"attribution": "massDOT", "bench": "no", "bin": "no", "bus": "yes", "highway": "bus_stop", "lit": "yes", "name": "BERKSHIRE / FIBERLOID", "network": "PVTA", "ref": "704", "shelter": "no", "source": "massdot_import_081511", "tactile_paving": "no"}}, {"type": "node", "id": 1408371819, "lat": 42.15506, "lon": -72.512268, "tags": {"attribution": "massDOT", "bench": "no", "bin": "no", "bus": "yes", "highway": "bus_stop", "lit": "yes", "name": "BERKSHIRE / FIBERLOID", "network": "PVTA", "ref": "708", "shelter": "no", "source": "massdot_import_081511", "tactile_paving": "no"}}, {"type": "node", "id": 1408371854, "lat": 42.133652, "lon": -72.53257, "tags": {"attribution": "massDOT", "bus": "yes", "highway": "bus_stop", "name": "BERKSHIRE / HARDING", "network": "PVTA", "ref": "901", "source": "massdot_import_081511"}}, {"type": "node", "id": 1408371860, "lat": 42.139355, "lon": -72.525345, "tags": {"attribution": "massDOT", "bus": "yes", "highway": "bus_stop", "name": "BERKSHIRE / HARVEY", "network": "PVTA", "ref": "828", "source": "massdot_import_081511"}}, {"type": "node", "id": 1408371865, "lat": 42.139458, "lon": -72.524979, "tags": {"attribution": "massDOT", "bus": "yes", "highway": "bus_stop", "name": "BERKSHIRE / HARVEY", "network": "PVTA", "ref": "826", "source": "massdot_import_081511"}}, {"type": "node", "id": 1408371871, "lat": 42.156578, "lon": -72.51107, "tags": {"attribution": "massDOT", "bus": "yes", "highway": "bus_stop", "name": "BERKSHIRE / HOLLY", "network": "PVTA", "ref": "694", "source": "massdot_import_081511"}}, {"type": "node", "id": 1408371893, "lat": 42.147423, "lon": -72.519241, "tags": {"attribution": "massDOT", "bus": "yes", "highway": "bus_stop", "name": "BERKSHIRE / LORIMER", "network": "PVTA", "ref": "750", "source": "massdot_import_081511"}}, {"type": "node", "id": 1408371900, "lat": 42.146248, "lon": -72.520325, "tags": {"attribution": "massDOT", "bus": "yes", "highway": "bus_stop", "name": "BERKSHIRE / MICHIGAN", "network": "PVTA", "ref": "757", "source": "massdot_import_081511"}}, {"type": "node", "id": 1408371906, "lat": 42.156975, "lon": -72.50631, "tags": {"attribution": "massDOT", "bus": "yes", "highway": "bus_stop", "name": "BERKSHIRE / MYRTLE", "network": "PVTA", "ref": "686", "source": "massdot_import_081511"}}, {"type": "node", "id": 1408371909, "lat": 42.157021, "lon": -72.506378, "tags": {"attribution": "massDOT", "bus": "yes", "highway": "bus_stop", "name": "BERKSHIRE / MYRTLE", "network": "PVTA", "ref": "685", "source": "massdot_import_081511"}}, {"type": "node", "id": 1408371914, "lat": 42.156742, "lon": -72.504013, "tags": {"attribution": "massDOT", "bus": "yes", "highway": "bus_stop", "name": "BERKSHIRE / OAK", "network": "PVTA", "ref": "693", "source": "massdot_import_081511"}}, {"type": "node", "id": 1408371921, "lat": 42.156826, "lon": -72.50399, "tags": {"attribution": "massDOT", "bus": "yes", "highway": "bus_stop", "name": "BERKSHIRE / OAK", "network": "PVTA", "ref": "689", "source": "massdot_import_081511"}}, {"type": "node", "id": 1408371927, "lat": 42.148808, "lon": -72.518204, "tags": {"attribution": "massDOT", "bus": "yes", "highway": "bus_stop", "name": "BERKSHIRE / OGDEN", "network": "PVTA", "ref": "736", "source": "massdot_import_081511"}}, {"type": "node", "id": 1408371934, "lat": 42.135635, "lon": -72.529602, "tags": {"attribution": "massDOT", "bus": "yes", "highway": "bus_stop", "name": "BERKSHIRE / RUSH", "network": "PVTA", "ref": "875", "source": "massdot_import_081511"}}, {"type": "node", "id": 1408371949, "lat": 42.149334, "lon": -72.517509, "tags": {"attribution": "massDOT", "bus": "yes", "highway": "bus_stop", "name": "BERKSHIRE / SENECA", "network": "PVTA", "ref": "730", "source": "massdot_import_081511"}}, {"type": "node", "id": 1408371955, "lat": 42.147057, "lon": -72.519806, "tags": {"attribution": "massDOT", "bus": "yes", "highway": "bus_stop", "name": "BERKSHIRE / SUPERIOR", "network": "PVTA", "ref": "753", "source": "massdot_import_081511"}}, {"type": "node", "id": 1408371963, "lat": 42.155022, "lon": -72.512268, "tags": {"attribution": "massDOT", "bench": "no", "bin": "no", "bus": "yes", "highway": "bus_stop", "lit": "yes", "name": "BERKSHIRE / UNNAMED STREET", "network": "PVTA", "ref": "701", "shelter": "no", "source": "massdot_import_081511", "tactile_paving": "no"}}, {"type": "node", "id": 1408371969, "lat": 42.15004, "lon": -72.517075, "tags": {"attribution": "massDOT", "bus": "yes", "highway": "bus_stop", "name": "BERKSHIRE / US HWY 20", "network": "PVTA", "ref": "722", "source": "massdot_import_081511"}}, {"type": "node", "id": 1408371988, "lat": 42.20612, "lon": -72.554237, "tags": {"attribution": "massDOT", "bus": "yes", "highway": "bus_stop", "name": "BETTER / BETTER", "network": "PVTA", "ref": "401", "source": "massdot_import_081511"}}, {"type": "node", "id": 1408371998, "lat": 42.119415, "lon": -72.548218, "tags": {"attribution": "massDOT", "bus": "yes", "highway": "bus_stop", "name": "BLUNT PARK / STATE", "network": "PVTA", "ref": "1084", "source": "massdot_import_081511"}}, {"type": "node", "id": 1408372013, "lat": 42.124493, "lon": -72.5382, "tags": {"attribution": "massDOT", "bus": "yes", "highway": "bus_stop", "name": "BOSTON / AMBROSE", "network": "PVTA", "ref": "999", "source": "massdot_import_081511"}}, {"type": "node", "id": 1408372018, "lat": 42.124607, "lon": -72.538208, "tags": {"attribution": "massDOT", "bus": "yes", "highway": "bus_stop", "name": "BOSTON / AMBROSE", "network": "PVTA", "ref": "995", "source": "massdot_import_081511"}}, {"type": "node", "id": 1408372032, "lat": 42.125038, "lon": -72.535912, "tags": {"attribution": "massDOT", "bus": "yes", "highway": "bus_stop", "name": "BOSTON / AMBROSE", "network": "PVTA", "ref": "990", "source": "massdot_import_081511"}}, {"type": "node", "id": 1408372039, "lat": 42.134548, "lon": -72.524261, "tags": {"attribution": "massDOT", "bus": "yes", "highway": "bus_stop", "name": "BOSTON / ARNOLD", "network": "PVTA", "ref": "886", "source": "massdot_import_081511"}}, {"type": "node", "id": 1408372045, "lat": 42.127071, "lon": -72.531448, "tags": {"attribution": "massDOT", "bus": "yes", "highway": "bus_stop", "name": "BOSTON / BARBER", "network": "PVTA", "ref": "969", "source": "massdot_import_081511"}}, {"type": "node", "id": 1408372051, "lat": 42.14542, "lon": -72.484261, "tags": {"attribution": "massDOT", "bus": "yes", "highway": "bus_stop", "name": "BOSTON / BIDDLE", "network": "PVTA", "ref": "764", "source": "massdot_import_081511"}}, {"type": "node", "id": 1408372078, "lat": 42.150795, "lon": -72.459068, "tags": {"attribution": "massDOT", "bus": "yes", "highway": "bus_stop", "name": "BOSTON / BRAINARD", "network": "PVTA", "ref": "721", "source": "massdot_import_081511"}}, {"type": "node", "id": 1408372096, "lat": 42.125603, "lon": -72.534126, "tags": {"attribution": "massDOT", "bus": "yes", "highway": "bus_stop", "name": "BOSTON / COLEMAN", "network": "PVTA", "ref": "982", "source": "massdot_import_081511"}}, {"type": "node", "id": 1408372103, "lat": 42.126205, "lon": -72.533195, "tags": {"attribution": "massDOT", "bus": "yes", "highway": "bus_stop", "name": "BOSTON / DENVER", "network": "PVTA", "ref": "975", "source": "massdot_import_081511"}}, {"type": "node", "id": 1408372105, "lat": 42.126316, "lon": -72.532669, "tags": {"attribution": "massDOT", "bus": "yes", "highway": "bus_stop", "name": "BOSTON / DENVER", "network": "PVTA", "ref": "974", "source": "massdot_import_081511"}}, {"type": "node", "id": 1408372126, "lat": 42.146809, "lon": -72.481552, "tags": {"attribution": "massDOT", "bus": "yes", "highway": "bus_stop", "name": "BOSTON / DUDLEY", "network": "PVTA", "ref": "755", "source": "massdot_import_081511"}}, {"type": "node", "id": 1408372133, "lat": 42.140041, "lon": -72.503304, "tags": {"attribution": "massDOT", "bus": "yes", "highway": "bus_stop", "name": "BOSTON / FIELDSTON", "network": "PVTA", "ref": "823", "source": "massdot_import_081511"}}, {"type": "node", "id": 1408372143, "lat": 42.137196, "lon": -72.516724, "tags": {"attribution": "massDOT", "bus": "yes", "highway": "bus_stop", "name": "BOSTON / GLENWOOD", "network": "PVTA", "ref": "860", "source": "massdot_import_081511"}}, {"type": "node", "id": 1408372152, "lat": 42.137196, "lon": -72.517578, "tags": {"attribution": "massDOT", "bus": "yes", "highway": "bus_stop", "name": "BOSTON / GLENWOOD", "network": "PVTA", "ref": "858", "source": "massdot_import_081511"}}, {"type": "node", "id": 1408372168, "lat": 42.13578, "lon": -72.522751, "tags": {"attribution": "massDOT", "bus": "yes", "highway": "bus_stop", "name": "BOSTON / LAWNWOOD", "network": "PVTA", "ref": "869", "source": "massdot_import_081511"}}, {"type": "node", "id": 1408372174, "lat": 42.135845, "lon": -72.522255, "tags": {"attribution": "massDOT", "bus": "yes", "highway": "bus_stop", "name": "BOSTON / LAWNWOOD", "network": "PVTA", "ref": "871", "source": "massdot_import_081511"}}, {"type": "node", "id": 1408372183, "lat": 42.140591, "lon": -72.49984, "tags": {"attribution": "massDOT", "bus": "yes", "highway": "bus_stop", "name": "BOSTON / LUCERNE", "network": "PVTA", "ref": "6400", "source": "massdot_import_081511"}}, {"type": "node", "id": 1408372189, "lat": 42.14072, "lon": -72.499924, "tags": {"attribution": "massDOT", "bus": "yes", "highway": "bus_stop", "name": "BOSTON / LUCERNE", "network": "PVTA", "ref": "811", "source": "massdot_import_081511"}}, {"type": "node", "id": 1408372214, "lat": 42.130833, "lon": -72.527039, "tags": {"attribution": "massDOT", "bus": "yes", "highway": "bus_stop", "name": "BOSTON / MORTON", "network": "PVTA", "ref": "940", "source": "massdot_import_081511"}}, {"type": "node", "id": 1408372222, "lat": 42.130917, "lon": -72.526688, "tags": {"attribution": "massDOT", "bus": "yes", "highway": "bus_stop", "name": "BOSTON / MORTON", "network": "PVTA", "ref": "938", "source": "massdot_import_081511"}}, {"type": "node", "id": 1408372228, "lat": 42.1420715, "lon": -72.4919591, "tags": {"attribution": "massDOT", "bus": "yes", "highway": "bus_stop", "name": "BOSTON / PARKING LOT", "network": "PVTA", "ref": "797", "source": "massdot_import_081511"}}, {"type": "node", "id": 1408372234, "lat": 42.128899, "lon": -72.529411, "tags": {"attribution": "massDOT", "bus": "yes", "highway": "bus_stop", "name": "BOSTON / PHELAND", "network": "PVTA", "ref": "956", "source": "massdot_import_081511"}}, {"type": "node", "id": 1408372254, "lat": 42.148548, "lon": -72.441223, "tags": {"attribution": "massDOT", "bus": "yes", "highway": "bus_stop", "name": "BOSTON / POST OFFICE", "network": "PVTA", "ref": "745", "source": "massdot_import_081511"}}, {"type": "node", "id": 1408372263, "lat": 42.125156, "lon": -72.53595, "tags": {"attribution": "massDOT", "bus": "yes", "highway": "bus_stop", "name": "BOSTON / PRESTON", "network": "PVTA", "ref": "989", "source": "massdot_import_081511"}}, {"type": "node", "id": 1408372269, "lat": 42.13866, "lon": -72.508972, "tags": {"attribution": "massDOT", "bus": "yes", "highway": "bus_stop", "name": "BOSTON / SHUMWAY", "network": "PVTA", "ref": "841", "source": "massdot_import_081511"}}, {"type": "node", "id": 1408372276, "lat": 42.148811, "lon": -72.477661, "tags": {"attribution": "massDOT", "bus": "yes", "highway": "bus_stop", "name": "BOSTON / STONY HILL", "network": "PVTA", "ref": "742", "source": "massdot_import_081511"}}, {"type": "node", "id": 1408372292, "lat": 42.134098, "lon": -72.525017, "tags": {"attribution": "massDOT", "bus": "yes", "highway": "bus_stop", "name": "BOSTON / STUART", "network": "PVTA", "ref": "887", "source": "massdot_import_081511"}}, {"type": "node", "id": 1408372299, "lat": 42.139614, "lon": -72.505508, "tags": {"attribution": "massDOT", "bus": "yes", "highway": "bus_stop", "name": "BOSTON / TEMBY", "network": "PVTA", "ref": "825", "source": "massdot_import_081511"}}, {"type": "node", "id": 1408372324, "lat": 42.137501, "lon": -72.515091, "tags": {"attribution": "massDOT", "bus": "yes", "highway": "bus_stop", "name": "BOSTON / WALLACE", "network": "PVTA", "ref": "855", "source": "massdot_import_081511"}}, {"type": "node", "id": 1408372335, "lat": 42.12767, "lon": -72.530891, "tags": {"attribution": "massDOT", "bus": "yes", "highway": "bus_stop", "name": "BOSTON / WILTON", "network": "PVTA", "ref": "962", "source": "massdot_import_081511"}}, {"type": "node", "id": 1408372353, "lat": 42.108162, "lon": -72.521118, "tags": {"attribution": "massDOT", "bus": "yes", "highway": "bus_stop", "name": "BRADLEY / CHEROKEE", "network": "PVTA", "ref": "1373", "source": "massdot_import_081511"}}, {"type": "node", "id": 1408372361, "lat": 42.108284, "lon": -72.521255, "tags": {"attribution": "massDOT", "bus": "yes", "highway": "bus_stop", "name": "BRADLEY / CHEROKEE", "network": "PVTA", "ref": "1368", "source": "massdot_import_081511"}}, {"type": "node", "id": 1408372389, "lat": 42.109352, "lon": -72.521278, "tags": {"attribution": "massDOT", "bus": "yes", "highway": "bus_stop", "name": "BRADLEY / EMERALD", "network": "PVTA", "ref": "1349", "source": "massdot_import_081511"}}, {"type": "node", "id": 1408372393, "lat": 42.112316, "lon": -72.522339, "tags": {"attribution": "massDOT", "bus": "yes", "highway": "bus_stop", "name": "BRADLEY / FREDETTE", "network": "PVTA", "ref": "1294", "source": "massdot_import_081511"}}, {"type": "node", "id": 1408372416, "lat": 42.113827, "lon": -72.523819, "tags": {"attribution": "massDOT", "bus": "yes", "highway": "bus_stop", "name": "BRADLEY / FREDETTE", "network": "PVTA", "ref": "1248", "source": "massdot_import_081511"}}, {"type": "node", "id": 1408372422, "lat": 42.113998, "lon": -72.523972, "tags": {"attribution": "massDOT", "bus": "yes", "highway": "bus_stop", "name": "BRADLEY / FREDETTE", "network": "PVTA", "ref": "1243", "source": "massdot_import_081511"}}, {"type": "node", "id": 1408372440, "lat": 42.111679, "lon": -72.521912, "tags": {"attribution": "massDOT", "bus": "yes", "highway": "bus_stop", "name": "BRADLEY / KEDDY", "network": "PVTA", "ref": "1313", "source": "massdot_import_081511"}}, {"type": "node", "id": 1408372448, "lat": 42.10416, "lon": -72.519218, "tags": {"attribution": "massDOT", "bus": "yes", "highway": "bus_stop", "name": "BRADLEY / PLUMTREE", "network": "PVTA", "ref": "1469", "source": "massdot_import_081511"}}, {"type": "node", "id": 1408372474, "lat": 42.104668, "lon": -72.519447, "tags": {"attribution": "massDOT", "bus": "yes", "highway": "bus_stop", "name": "BRADLEY / PLUMTREE", "network": "PVTA", "ref": "1459", "source": "massdot_import_081511"}}, {"type": "node", "id": 1408372479, "lat": 42.109871, "lon": -72.521492, "tags": {"attribution": "massDOT", "bus": "yes", "highway": "bus_stop", "name": "BRADLEY / SHIRLEY", "network": "PVTA", "ref": "1342", "source": "massdot_import_081511"}}, {"type": "node", "id": 1408372494, "lat": 42.112385, "lon": -72.522621, "tags": {"attribution": "massDOT", "bus": "yes", "highway": "bus_stop", "name": "BRADLEY / VALLEY", "network": "PVTA", "ref": "1295", "source": "massdot_import_081511"}}, {"type": "node", "id": 1408372505, "lat": 42.103092, "lon": -72.523178, "tags": {"attribution": "massDOT", "bus": "yes", "highway": "bus_stop", "name": "BRANCH / PLUMTREE", "network": "PVTA", "ref": "1482", "source": "massdot_import_081511"}}, {"type": "node", "id": 1408372516, "lat": 42.102531, "lon": -72.526146, "tags": {"attribution": "massDOT", "bus": "yes", "highway": "bus_stop", "name": "BRANCH / TERRACE", "network": "PVTA", "ref": "1490", "source": "massdot_import_081511"}}, {"type": "node", "id": 1408372522, "lat": 42.10603, "lon": -72.587914, "tags": {"attribution": "massDOT", "bus": "yes", "highway": "bus_stop", "name": "BRIDGE / CHESTNUT", "network": "PVTA", "public_transport": "platform", "ref": "1420", "source": "massdot_import_081511"}}, {"type": "node", "id": 1408372539, "lat": 42.216152, "lon": -72.593391, "tags": {"attribution": "massDOT", "bus": "yes", "highway": "bus_stop", "name": "BRIDGE / GRANT", "network": "PVTA", "ref": "355", "source": "massdot_import_081511"}}, {"type": "node", "id": 1408372564, "lat": 42.215374, "lon": -72.594498, "tags": {"attribution": "massDOT", "bus": "yes", "highway": "bus_stop", "name": "BRIDGE / MAIN", "network": "PVTA", "ref": "358", "source": "massdot_import_081511"}}, {"type": "node", "id": 1408372573, "lat": 42.216103, "lon": -72.593315, "tags": {"attribution": "massDOT", "bus": "yes", "highway": "bus_stop", "name": "BRIDGE / SCHOOL ST", "network": "PVTA", "ref": "357", "source": "massdot_import_081511"}}, {"type": "node", "id": 1408372582, "lat": 42.208508, "lon": -72.573677, "tags": {"attribution": "massDOT", "bus": "yes", "highway": "bus_stop", "name": "BRITTON / HUDSON", "network": "PVTA", "ref": "383", "source": "massdot_import_081511"}}, {"type": "node", "id": 1408372590, "lat": 42.1409768, "lon": -72.5813881, "tags": {"attribution": "massDOT", "bus": "yes", "highway": "bus_stop", "name": "BROADWAY / ABBEY MEMORIAL", "network": "PVTA", "ref": "798", "source": "massdot_import_081511"}}, {"type": "node", "id": 1408372605, "lat": 42.149849, "lon": -72.580116, "tags": {"attribution": "massDOT", "bus": "yes", "highway": "bus_stop", "name": "BROADWAY / MADISON", "network": "PVTA", "ref": "720", "source": "massdot_import_081511"}}, {"type": "node", "id": 1408372609, "lat": 42.149181, "lon": -72.579842, "tags": {"attribution": "massDOT", "bus": "yes", "highway": "bus_stop", "name": "BROADWAY / MONROE", "network": "PVTA", "ref": "725", "source": "massdot_import_081511"}}, {"type": "node", "id": 1408372618, "lat": 42.156067, "lon": -72.580727, "tags": {"attribution": "massDOT", "bus": "yes", "highway": "bus_stop", "name": "BROADWAY / PAINE", "network": "PVTA", "ref": "692", "source": "massdot_import_081511"}}, {"type": "node", "id": 1408372623, "lat": 42.152824, "lon": -72.580353, "tags": {"attribution": "massDOT", "bus": "yes", "highway": "bus_stop", "name": "BROADWAY / PINE", "network": "PVTA", "ref": "709", "source": "massdot_import_081511"}}, {"type": "node", "id": 1408372635, "lat": 42.153316, "lon": -72.580521, "tags": {"attribution": "massDOT", "bus": "yes", "highway": "bus_stop", "name": "BROADWAY / PINE", "network": "PVTA", "ref": "706", "source": "massdot_import_081511"}}, {"type": "node", "id": 1408372636, "lat": 42.156155, "lon": -72.580887, "tags": {"attribution": "massDOT", "bus": "yes", "highway": "bus_stop", "name": "BROADWAY / RAMP", "network": "PVTA", "ref": "687", "source": "massdot_import_081511"}}, {"type": "node", "id": 1408372651, "lat": 42.154129, "lon": -72.580498, "tags": {"attribution": "massDOT", "bus": "yes", "highway": "bus_stop", "name": "BROADWAY / SUMMER", "network": "PVTA", "ref": "702", "source": "massdot_import_081511"}}, {"type": "node", "id": 1408372652, "lat": 42.146957, "lon": -72.579788, "tags": {"attribution": "massDOT", "bus": "yes", "highway": "bus_stop", "name": "BROADWAY / THEODORE", "network": "PVTA", "ref": "749", "source": "massdot_import_081511"}}, {"type": "node", "id": 1408372668, "lat": 42.146984, "lon": -72.579651, "tags": {"attribution": "massDOT", "bus": "yes", "highway": "bus_stop", "name": "BROADWAY / THEODORE", "network": "PVTA", "ref": "748", "source": "massdot_import_081511"}}, {"type": "node", "id": 1408372670, "lat": 42.143654, "lon": -72.580498, "tags": {"attribution": "massDOT", "bus": "yes", "highway": "bus_stop", "name": "BROADWAY / WESTERN", "network": "PVTA", "ref": "776", "source": "massdot_import_081511"}}, {"type": "node", "id": 1408372681, "lat": 42.143665, "lon": -72.580376, "tags": {"attribution": "massDOT", "bus": "yes", "highway": "bus_stop", "name": "BROADWAY / WESTERN", "network": "PVTA", "ref": "775", "source": "massdot_import_081511"}}, {"type": "node", "id": 1408372685, "lat": 42.142162, "lon": -72.580963, "tags": {"attribution": "massDOT", "bus": "yes", "highway": "bus_stop", "name": "BROADWAY / WILLIAM", "network": "PVTA", "ref": "790", "source": "massdot_import_081511"}}, {"type": "node", "id": 1408372696, "lat": 42.064129, "lon": -72.505821, "tags": {"attribution": "massDOT", "bus": "yes", "highway": "bus_stop", "name": "BROWNSTONE APT DRIVE / BROWNSTONE", "network": "PVTA", "ref": "1864", "source": "massdot_import_081511"}}, {"type": "node", "id": 1408372791, "lat": 42.217026, "lon": -72.597748, "tags": {"attribution": "massDOT", "bus": "yes", "highway": "bus_stop", "name": "Bardwell & Crew (Flag stop - signal driver)", "network": "PVTA", "ref": "5050", "source": "massdot_import_081511"}}, {"type": "node", "id": 1408372792, "lat": 42.221123, "lon": -72.598419, "tags": {"attribution": "massDOT", "bus": "yes", "highway": "bus_stop", "name": "Bardwell & Linden (Flag stop - signal driver)", "network": "PVTA", "ref": "5049", "source": "massdot_import_081511"}}, {"type": "node", "id": 1408373398, "lat": 42.086666, "lon": -72.56102, "tags": {"attribution": "massDOT", "bus": "yes", "highway": "bus_stop", "name": "Belmont/Beaumont", "network": "PVTA", "ref": "1730", "source": "massdot_import_081511"}}, {"type": "node", "id": 1408373412, "lat": 42.084904, "lon": -72.550568, "tags": {"attribution": "massDOT", "bus": "yes", "highway": "bus_stop", "name": "Belmont/Bryant", "network": "PVTA", "ref": "1763", "source": "massdot_import_081511"}}, {"type": "node", "id": 1408373413, "lat": 42.085869, "lon": -72.555946, "tags": {"attribution": "massDOT", "bus": "yes", "highway": "bus_stop", "name": "Belmont/Commonwealth(opposite)", "network": "PVTA", "ref": "1747", "source": "massdot_import_081511"}}, {"type": "node", "id": 1408373426, "lat": 42.085281, "lon": -72.552727, "tags": {"attribution": "massDOT", "bus": "yes", "highway": "bus_stop", "name": "Belmont/Daytona", "network": "PVTA", "ref": "1753", "source": "massdot_import_081511"}}, {"type": "node", "id": 1408373431, "lat": 42.083752, "lon": -72.544441, "tags": {"attribution": "massDOT", "bench": "no", "bin": "no", "bus": "yes", "highway": "bus_stop", "lit": "yes", "name": "Belmont/Fountain(opposite)", "network": "PVTA", "ref": "1775", "shelter": "no", "source": "massdot_import_081511", "tactile_paving": "no"}}, {"type": "node", "id": 1408373436, "lat": 42.084854, "lon": -72.551018, "tags": {"attribution": "massDOT", "bus": "yes", "highway": "bus_stop", "name": "Belmont/Itendale", "network": "PVTA", "ref": "1761", "source": "massdot_import_081511"}}, {"type": "node", "id": 1408373449, "lat": 42.088161, "lon": -72.56852, "tags": {"attribution": "massDOT", "bus": "yes", "highway": "bus_stop", "name": "Belmont/Keith", "network": "PVTA", "ref": "1711", "source": "massdot_import_081511"}}, {"type": "node", "id": 1408373456, "lat": 42.083965, "lon": -72.544121, "tags": {"attribution": "massDOT", "bus": "yes", "highway": "bus_stop", "name": "Belmont/Kenwood Park", "network": "PVTA", "ref": "1772", "source": "massdot_import_081511"}}, {"type": "node", "id": 1408373464, "lat": 42.089687, "lon": -72.575417, "tags": {"attribution": "massDOT", "bus": "yes", "highway": "bus_stop", "name": "Belmont/Leyfred", "network": "PVTA", "ref": "1687", "source": "massdot_import_081511"}}, {"type": "node", "id": 1408373471, "lat": 42.087452, "lon": -72.565224, "tags": {"attribution": "massDOT", "bus": "yes", "highway": "bus_stop", "name": "Belmont/Litchfield", "network": "PVTA", "ref": "1717", "source": "massdot_import_081511"}}, {"type": "node", "id": 1408373482, "lat": 42.084415, "lon": -72.547951, "tags": {"attribution": "massDOT", "bus": "yes", "highway": "bus_stop", "name": "Belmont/Longfellow", "network": "PVTA", "ref": "1768", "source": "massdot_import_081511"}}, {"type": "node", "id": 1408373487, "lat": 42.088081, "lon": -72.568626, "tags": {"attribution": "massDOT", "bus": "yes", "highway": "bus_stop", "name": "Belmont/Mountainview", "network": "PVTA", "ref": "1710", "source": "massdot_import_081511"}}, {"type": "node", "id": 1408373500, "lat": 42.08744, "lon": -72.564613, "tags": {"attribution": "massDOT", "bus": "yes", "highway": "bus_stop", "name": "Belmont/Oakland", "network": "PVTA", "ref": "1718", "source": "massdot_import_081511"}}, {"type": "node", "id": 1408373501, "lat": 42.084316, "lon": -72.548119, "tags": {"attribution": "massDOT", "bus": "yes", "highway": "bus_stop", "name": "Belmont/Whittier (opposite)", "network": "PVTA", "ref": "1769", "source": "massdot_import_081511"}}, {"type": "node", "id": 1408373580, "lat": 42.095608, "lon": -72.508995, "tags": {"attribution": "massDOT", "bus": "yes", "highway": "bus_stop", "name": "Bicentennial Hwy. (1)", "network": "PVTA", "ref": "1577", "source": "massdot_import_081511"}}, {"type": "node", "id": 1408373604, "lat": 42.13903, "lon": -72.518478, "tags": {"attribution": "massDOT", "bus": "yes", "highway": "bus_stop", "name": "Big Y Boston Road", "network": "PVTA", "ref": "837", "source": "massdot_import_081511"}}, {"type": "node", "id": 1408373612, "lat": 42.079754, "lon": -72.527634, "tags": {"attribution": "massDOT", "bus": "yes", "highway": "bus_stop", "name": "Big Y East Longmeadow", "network": "PVTA", "ref": "1805", "source": "massdot_import_081511"}}, {"type": "node", "id": 1408373613, "lat": 42.16909, "lon": -72.481865, "tags": {"attribution": "massDOT", "bus": "yes", "highway": "bus_stop", "network": "PVTA", "ref": "616", "source": "massdot_import_081511"}}, {"type": "node", "id": 1408373618, "lat": 42.1744169, "lon": -72.5785987, "tags": {"attribution": "massDOT", "bus": "yes", "highway": "bus_stop", "name": "Big Y Memorial Dr. Chicopee", "network": "PVTA", "ref": "585", "source": "massdot_import_081511"}}, {"type": "node", "id": 1408373634, "lat": 42.096199, "lon": -72.500008, "tags": {"attribution": "massDOT", "bus": "yes", "highway": "bus_stop", "name": "Big Y at Allen and Cooley Sts.", "network": "PVTA", "ref": "1567", "source": "massdot_import_081511"}}, {"type": "node", "id": 1408373727, "lat": 42.2543579, "lon": -72.5741206, "tags": {"attribution": "massDOT", "bus": "yes", "highway": "bus_stop", "name": "Blanchard Hall", "network": "PVTA", "ref": "336", "source": "massdot_import_081511"}}, {"type": "node", "id": 1408373761, "lat": 42.102081, "lon": -72.59127, "tags": {"attribution": "massDOT", "bus": "yes", "highway": "bus_stop", "name": "Boland Way", "network": "PVTA", "public_transport": "platform", "ref": "9022", "shelter": "no", "source": "massdot_import_081511"}}, {"type": "node", "id": 1408373778, "lat": 42.15081, "lon": -72.458763, "tags": {"attribution": "massDOT", "bus": "yes", "highway": "bus_stop", "name": "Boston Rd & Brainard (Flag stop - signal driver)", "network": "PVTA", "ref": "5024", "source": "massdot_import_081511"}}, {"type": "node", "id": 1408373782, "lat": 42.148739, "lon": -72.440933, "tags": {"attribution": "massDOT", "bus": "yes", "highway": "bus_stop", "name": "Boston Rd & PO Park (Flag stop - signal driver)", "network": "PVTA", "ref": "5026", "source": "massdot_import_081511"}}, {"type": "node", "id": 1408373794, "lat": 42.151154, "lon": -72.430527, "tags": {"attribution": "massDOT", "bus": "yes", "highway": "bus_stop", "name": "Boston Rd & Railroad (Flag stop - signal driver)", "network": "PVTA", "ref": "5027", "source": "massdot_import_081511"}}, {"type": "node", "id": 1408373807, "lat": 42.139503, "lon": -72.505295, "tags": {"attribution": "massDOT", "bus": "yes", "highway": "bus_stop", "name": "Boston Rd Mobile Home Park", "network": "PVTA", "ref": "829", "source": "massdot_import_081511"}}, {"type": "node", "id": 1408373820, "lat": 42.137775, "lon": -72.514473, "tags": {"attribution": "massDOT", "bus": "yes", "highway": "bus_stop", "name": "Boston/Brandon", "network": "PVTA", "ref": "852", "source": "massdot_import_081511"}}, {"type": "node", "id": 1408373826, "lat": 42.137867, "lon": -72.513107, "tags": {"attribution": "massDOT", "bus": "yes", "highway": "bus_stop", "name": "Boston/Lloyd", "network": "PVTA", "ref": "851", "source": "massdot_import_081511"}}, {"type": "node", "id": 1408373834, "lat": 42.128181, "lon": -72.530045, "tags": {"attribution": "massDOT", "bus": "yes", "highway": "bus_stop", "name": "Boston/Seymour", "network": "PVTA", "ref": "961", "source": "massdot_import_081511"}}, {"type": "node", "id": 1408374029, "lat": 42.142597, "lon": -72.52565, "tags": {"attribution": "massDOT", "bus": "yes", "highway": "bus_stop", "name": "Brookdale / Cottage", "network": "PVTA", "ref": "6306", "source": "massdot_import_081511"}}, {"type": "node", "id": 1408374031, "lat": 42.146343, "lon": -72.527252, "tags": {"attribution": "massDOT", "bus": "yes", "highway": "bus_stop", "name": "Brookdale / Unnamed St", "network": "PVTA", "ref": "6305", "source": "massdot_import_081511"}}, {"type": "node", "id": 1408374254, "lat": 42.150509, "lon": -72.544549, "tags": {"bus": "yes", "highway": "bus_stop", "name": "CADWELL / UNNAMED STREET", "network": "PVTA", "public_transport": "stop_position", "ref": "717"}}, {"type": "node", "id": 1408374260, "lat": 42.1480255, "lon": -72.5441279, "tags": {"attribution": "massDOT", "bus": "yes", "highway": "bus_stop", "name": "CADWELL / WATLING", "network": "PVTA", "public_transport": "stop_position", "ref": "743", "source": "massdot_import_081511"}}, {"type": "node", "id": 1408374274, "lat": 42.117565, "lon": -72.562782, "tags": {"attribution": "massDOT", "bus": "yes", "highway": "bus_stop", "name": "CAMBRIDGE / BAY", "network": "PVTA", "ref": "1123", "source": "massdot_import_081511"}}, {"type": "node", "id": 1408374282, "lat": 42.118965, "lon": -72.563705, "tags": {"attribution": "massDOT", "bus": "yes", "highway": "bus_stop", "name": "CAMBRIDGE / BAY", "network": "PVTA", "ref": "1094", "source": "massdot_import_081511"}}, {"type": "node", "id": 1408374296, "lat": 42.115639, "lon": -72.561516, "tags": {"attribution": "massDOT", "bus": "yes", "highway": "bus_stop", "name": "CAMBRIDGE / BURR", "network": "PVTA", "ref": "1180", "source": "massdot_import_081511"}}, {"type": "node", "id": 1408374306, "lat": 42.122192, "lon": -72.588448, "tags": {"attribution": "massDOT", "bus": "yes", "highway": "bus_stop", "name": "CAREW / ARMORY", "network": "PVTA", "ref": "1023", "source": "massdot_import_081511"}}, {"type": "node", "id": 1408374325, "lat": 42.11665, "lon": -72.595306, "tags": {"attribution": "massDOT", "bus": "yes", "highway": "bus_stop", "name": "CAREW / CASS", "network": "PVTA", "ref": "1143", "source": "massdot_import_081511"}}, {"type": "node", "id": 1408374328, "lat": 42.130405, "lon": -72.576729, "tags": {"attribution": "massDOT", "bus": "yes", "highway": "bus_stop", "name": "CAREW / EDDY", "network": "PVTA", "ref": "941", "source": "massdot_import_081511"}}, {"type": "node", "id": 1408374346, "lat": 42.126377, "lon": -72.583084, "tags": {"attribution": "massDOT", "bus": "yes", "highway": "bus_stop", "name": "CAREW / FREEMAN", "network": "PVTA", "ref": "972", "source": "massdot_import_081511"}}, {"type": "node", "id": 1408374354, "lat": 42.125046, "lon": -72.584648, "tags": {"attribution": "massDOT", "bus": "yes", "highway": "bus_stop", "name": "CAREW / LIBCAR", "network": "PVTA", "ref": "984", "source": "massdot_import_081511"}}, {"type": "node", "id": 1408374364, "lat": 42.125629, "lon": -72.584137, "tags": {"attribution": "massDOT", "bus": "yes", "highway": "bus_stop", "name": "CAREW / LIBERTY", "network": "PVTA", "ref": "980", "source": "massdot_import_081511"}}, {"type": "node", "id": 1408374367, "lat": 42.126602, "lon": -72.583015, "tags": {"attribution": "massDOT", "bus": "yes", "highway": "bus_stop", "name": "CAREW / LIBERTY", "network": "PVTA", "ref": "968", "source": "massdot_import_081511"}}, {"type": "node", "id": 1408374370, "lat": 42.114819, "lon": -72.59581, "tags": {"attribution": "massDOT", "bus": "yes", "highway": "bus_stop", "name": "CAREW / MASSASOIT", "network": "PVTA", "ref": "1197", "source": "massdot_import_081511"}}, {"type": "node", "id": 1408374383, "lat": 42.12011, "lon": -72.592468, "tags": {"attribution": "massDOT", "bus": "yes", "highway": "bus_stop", "name": "CAREW / MELHA", "network": "PVTA", "ref": "1064", "source": "massdot_import_081511"}}, {"type": "node", "id": 1408374390, "lat": 42.120235, "lon": -72.592484, "tags": {"attribution": "massDOT", "bus": "yes", "highway": "bus_stop", "name": "CAREW / MELHA", "network": "PVTA", "ref": "1063", "source": "massdot_import_081511"}}, {"type": "node", "id": 1408374401, "lat": 42.128994, "lon": -72.579338, "tags": {"attribution": "massDOT", "bus": "yes", "highway": "bus_stop", "name": "CAREW / MIDDLE", "network": "PVTA", "ref": "950", "source": "massdot_import_081511"}}, {"type": "node", "id": 1408374406, "lat": 42.128136, "lon": -72.580833, "tags": {"attribution": "massDOT", "bus": "yes", "highway": "bus_stop", "name": "CAREW / NOTTINGHAM", "network": "PVTA", "ref": "958", "source": "massdot_import_081511"}}, {"type": "node", "id": 1408374417, "lat": 42.124786, "lon": -72.585152, "tags": {"attribution": "massDOT", "bus": "yes", "highway": "bus_stop", "name": "CAREW / PENACOOK", "network": "PVTA", "ref": "986", "source": "massdot_import_081511"}}, {"type": "node", "id": 1408374426, "lat": 42.131645, "lon": -72.574699, "tags": {"attribution": "massDOT", "bus": "yes", "highway": "bus_stop", "name": "CAREW / PIEDMONT", "network": "PVTA", "ref": "915", "source": "massdot_import_081511"}}, {"type": "node", "id": 1408374455, "lat": 42.133774, "lon": -72.571129, "tags": {"attribution": "massDOT", "bus": "yes", "highway": "bus_stop", "name": "CAREW / SHERBROOKE", "network": "PVTA", "ref": "890", "source": "massdot_import_081511"}}, {"type": "node", "id": 1408374465, "lat": 42.130627, "lon": -72.576546, "tags": {"attribution": "massDOT", "bus": "yes", "highway": "bus_stop", "name": "CAREW / SUZANNE", "network": "PVTA", "ref": "936", "source": "massdot_import_081511"}}, {"type": "node", "id": 1408374473, "lat": 42.132332, "lon": -72.573387, "tags": {"attribution": "massDOT", "bus": "yes", "highway": "bus_stop", "name": "CAREW / UPLAND", "network": "PVTA", "ref": "906", "source": "massdot_import_081511"}}, {"type": "node", "id": 1408374493, "lat": 42.123634, "lon": -72.586594, "tags": {"attribution": "massDOT", "bus": "yes", "highway": "bus_stop", "name": "CAREW / VAN HORN", "network": "PVTA", "ref": "1003", "source": "massdot_import_081511"}}, {"type": "node", "id": 1408374501, "lat": 42.158108, "lon": -72.48455, "tags": {"attribution": "massDOT", "bus": "yes", "highway": "bus_stop", "name": "CENTER / PARK", "network": "PVTA", "ref": "677", "source": "massdot_import_081511"}}, {"type": "node", "id": 1408374546, "lat": 42.098297, "lon": -72.570702, "tags": {"attribution": "massDOT", "bus": "yes", "highway": "bus_stop", "name": "CENTRAL / BEECH", "network": "PVTA", "ref": "1531", "source": "massdot_import_081511"}}, {"type": "node", "id": 1408374569, "lat": 42.099571, "lon": -72.574684, "tags": {"attribution": "massDOT", "bus": "yes", "highway": "bus_stop", "name": "CENTRAL / CEDAR", "network": "PVTA", "ref": "1514", "source": "massdot_import_081511"}}, {"type": "node", "id": 1408374575, "lat": 42.099632, "lon": -72.575066, "tags": {"attribution": "massDOT", "bus": "yes", "highway": "bus_stop", "name": "CENTRAL / CEDAR", "network": "PVTA", "ref": "1512", "source": "massdot_import_081511"}}, {"type": "node", "id": 1408374588, "lat": 42.097111, "lon": -72.566612, "tags": {"attribution": "massDOT", "bus": "yes", "highway": "bus_stop", "name": "CENTRAL / HANCOCK", "network": "PVTA", "ref": "1549", "source": "massdot_import_081511"}}, {"type": "node", "id": 1408374594, "lat": 42.099075, "lon": -72.573181, "tags": {"attribution": "massDOT", "bus": "yes", "highway": "bus_stop", "name": "CENTRAL / PINE", "network": "PVTA", "ref": "1520", "source": "massdot_import_081511"}}, {"type": "node", "id": 1408374619, "lat": 42.099148, "lon": -72.57328, "tags": {"attribution": "massDOT", "bus": "yes", "highway": "bus_stop", "name": "CENTRAL / PINE", "network": "PVTA", "ref": "1521", "source": "massdot_import_081511"}}, {"type": "node", "id": 1408374624, "lat": 42.096863, "lon": -72.565521, "tags": {"attribution": "massDOT", "bus": "yes", "highway": "bus_stop", "name": "CENTRAL / RIFLE", "network": "PVTA", "ref": "1551", "source": "massdot_import_081511"}}, {"type": "node", "id": 1408374645, "lat": 42.098, "lon": -72.56945, "tags": {"attribution": "massDOT", "bus": "yes", "highway": "bus_stop", "name": "CENTRAL / SPRUCE", "network": "PVTA", "ref": "1537", "source": "massdot_import_081511"}}, {"type": "node", "id": 1408374648, "lat": 42.098022, "lon": -72.569778, "tags": {"attribution": "massDOT", "bus": "yes", "highway": "bus_stop", "name": "CENTRAL / SPRUCE", "network": "PVTA", "ref": "1538", "source": "massdot_import_081511"}}, {"type": "node", "id": 1408374662, "lat": 42.099644, "lon": -72.576469, "tags": {"attribution": "massDOT", "bus": "yes", "highway": "bus_stop", "name": "CENTRAL / STERNS", "network": "PVTA", "public_transport": "platform", "ref": "1511", "source": "massdot_import_081511"}}, {"type": "node", "id": 1408374666, "lat": 42.099152, "lon": -72.603859, "tags": {"attribution": "massDOT", "bus": "yes", "highway": "bus_stop", "name": "CHAPIN / MAIN", "network": "PVTA", "public_transport": "platform", "ref": "1515", "source": "massdot_import_081511"}}, {"type": "node", "id": 1408374730, "lat": 42.116543, "lon": -72.601295, "tags": {"attribution": "massDOT", "bus": "yes", "highway": "bus_stop", "name": "CHESTNUT / BANCROFT", "network": "PVTA", "ref": "1144", "source": "massdot_import_081511"}}, {"type": "node", "id": 1408374745, "lat": 42.117947, "lon": -72.602913, "tags": {"attribution": "massDOT", "bus": "yes", "highway": "bus_stop", "name": "CHESTNUT / CALHOUN", "network": "PVTA", "ref": "1109", "source": "massdot_import_081511"}}, {"type": "node", "id": 1408374755, "lat": 42.11795, "lon": -72.603104, "tags": {"attribution": "massDOT", "bus": "yes", "highway": "bus_stop", "name": "CHESTNUT / CHAPIN", "network": "PVTA", "ref": "1104", "source": "massdot_import_081511"}}, {"type": "node", "id": 1408374761, "lat": 42.10989, "lon": -72.593819, "tags": {"attribution": "massDOT", "bus": "yes", "highway": "bus_stop", "name": "CHESTNUT / CONGRESS", "network": "PVTA", "public_transport": "platform", "ref": "1916", "source": "massdot_import_081511"}}, {"type": "node", "id": 1408374770, "lat": 42.103672, "lon": -72.586845, "tags": {"attribution": "massDOT", "bus": "yes", "highway": "bus_stop", "name": "CHESTNUT / EDWARDS", "network": "PVTA", "public_transport": "platform", "ref": "6016", "source": "massdot_import_081511"}}, {"type": "node", "id": 1408374773, "lat": 42.115082, "lon": -72.599358, "tags": {"attribution": "massDOT", "bus": "yes", "highway": "bus_stop", "name": "CHESTNUT / HEBRON", "network": "PVTA", "ref": "1185", "source": "massdot_import_081511"}}, {"type": "node", "id": 1408374789, "lat": 42.108986, "lon": -72.59285, "tags": {"attribution": "massDOT", "bus": "yes", "highway": "bus_stop", "name": "CHESTNUT / LIBERTY", "network": "PVTA", "public_transport": "platform", "ref": "1915", "source": "massdot_import_081511"}}, {"type": "node", "id": 1408374819, "lat": 42.118965, "lon": -72.60405, "tags": {"attribution": "massDOT", "bus": "yes", "highway": "bus_stop", "name": "CHESTNUT / PRATT", "network": "PVTA", "ref": "1081", "source": "massdot_import_081511"}}, {"type": "node", "id": 1408374838, "lat": 42.113651, "lon": -72.597435, "tags": {"attribution": "massDOT", "bus": "yes", "highway": "bus_stop", "name": "CHESTNUT / SHERRINGTON", "network": "PVTA", "ref": "1232", "source": "massdot_import_081511"}}, {"type": "node", "id": 1408374846, "lat": 42.112053, "lon": -72.595757, "tags": {"attribution": "massDOT", "bus": "yes", "highway": "bus_stop", "name": "CHESTNUT / STAFFORD", "network": "PVTA", "ref": "1287", "source": "massdot_import_081511"}}, {"type": "node", "id": 1408374874, "lat": 42.191559, "lon": -72.601097, "tags": {"attribution": "massDOT", "bus": "yes", "highway": "bus_stop", "name": "CHICOPEE / BAPTIST", "network": "PVTA", "ref": "510", "source": "massdot_import_081511"}}, {"type": "node", "id": 1408374997, "lat": 42.193661, "lon": -72.600113, "tags": {"attribution": "massDOT", "bus": "yes", "highway": "bus_stop", "name": "CHICOPEE / EMERSON", "network": "PVTA", "ref": "501", "source": "massdot_import_081511"}}, {"type": "node", "id": 1408375143, "lat": 42.132431, "lon": -72.544655, "tags": {"attribution": "massDOT", "bus": "yes", "highway": "bus_stop", "name": "CLORAN / BAY", "network": "PVTA", "ref": "909", "source": "massdot_import_081511"}}, {"type": "node", "id": 1408375211, "lat": 42.258865, "lon": -72.57515, "tags": {"attribution": "massDOT", "bus": "yes", "highway": "bus_stop", "name": "COLLEGE / PARK", "network": "PVTA", "ref": "323", "source": "massdot_import_081511"}}, {"type": "node", "id": 1408375216, "lat": 42.060398, "lon": -72.546371, "tags": {"attribution": "massDOT", "bus": "yes", "highway": "bus_stop", "name": "CONVERSE / TABOR", "network": "PVTA", "ref": "1872", "source": "massdot_import_081511"}}, {"type": "node", "id": 1408375233, "lat": 42.061211, "lon": -72.548431, "tags": {"attribution": "massDOT", "bus": "yes", "highway": "bus_stop", "name": "CONVERSE / TABOR", "network": "PVTA", "ref": "1869", "source": "massdot_import_081511"}}, {"type": "node", "id": 1408375237, "lat": 42.093288, "lon": -72.499283, "tags": {"attribution": "massDOT", "bus": "yes", "highway": "bus_stop", "name": "COOLEY / UNNAMED STREET", "network": "PVTA", "ref": "6372", "source": "massdot_import_081511"}}, {"type": "node", "id": 1408375254, "lat": 42.143398, "lon": -72.534698, "tags": {"attribution": "massDOT", "bus": "yes", "highway": "bus_stop", "name": "COTTAGE / PROGRESS", "network": "PVTA", "ref": "783", "source": "massdot_import_081511"}}, {"type": "node", "id": 1408375260, "lat": 42.1442539, "lon": -72.5445413, "tags": {"attribution": "massDOT", "bus": "yes", "highway": "bus_stop", "name": "COTTAGE / ROBBINS", "network": "PVTA", "public_transport": "stop_position", "ref": "774", "source": "massdot_import_081511"}}, {"type": "node", "id": 1408375264, "lat": 42.143978, "lon": -72.540443, "tags": {"attribution": "massDOT", "bus": "yes", "highway": "bus_stop", "name": "COTTAGE / TURNBULL", "network": "PVTA", "ref": "777", "source": "massdot_import_081511"}}, {"type": "node", "id": 1408375403, "lat": 42.086403, "lon": -72.504814, "tags": {"attribution": "massDOT", "bus": "yes", "highway": "bus_stop", "name": "Canon Circle (1)", "network": "PVTA", "ref": "1744", "source": "massdot_import_081511"}}, {"type": "node", "id": 1408375406, "lat": 42.086006, "lon": -72.508148, "tags": {"attribution": "massDOT", "bus": "yes", "highway": "bus_stop", "name": "Canon Circle(2)", "network": "PVTA", "ref": "9000", "source": "massdot_import_081511"}}, {"type": "node", "id": 1408375421, "lat": 42.086334, "lon": -72.504639, "tags": {"attribution": "massDOT", "bus": "yes", "highway": "bus_stop", "name": "Canon Circle(3)", "network": "PVTA", "ref": "1745", "source": "massdot_import_081511"}}, {"type": "node", "id": 1408375528, "lat": 42.141685, "lon": -72.567108, "tags": {"attribution": "massDOT", "bus": "yes", "highway": "bus_stop", "name": "Carew / Anne", "network": "PVTA", "ref": "6311", "source": "massdot_import_081511"}}, {"type": "node", "id": 1408375530, "lat": 42.143539, "lon": -72.566307, "tags": {"attribution": "massDOT", "bus": "yes", "highway": "bus_stop", "name": "Carew / Davis", "network": "PVTA", "ref": "6312", "source": "massdot_import_081511"}}, {"type": "node", "id": 1408375541, "lat": 42.135551, "lon": -72.569649, "tags": {"attribution": "massDOT", "bus": "yes", "highway": "bus_stop", "name": "Carew / Detroit", "network": "PVTA", "ref": "6309", "source": "massdot_import_081511"}}, {"type": "node", "id": 1408375543, "lat": 42.146946, "lon": -72.564941, "tags": {"attribution": "massDOT", "bus": "yes", "highway": "bus_stop", "name": "Carew / Edendale", "network": "PVTA", "ref": "6314", "source": "massdot_import_081511"}}, {"type": "node", "id": 1408375571, "lat": 42.140347, "lon": -72.56765, "tags": {"attribution": "massDOT", "bus": "yes", "highway": "bus_stop", "name": "Carew / Linnell", "network": "PVTA", "ref": "6310", "source": "massdot_import_081511"}}, {"type": "node", "id": 1408375577, "lat": 42.148243, "lon": -72.564484, "tags": {"attribution": "massDOT", "bus": "yes", "highway": "bus_stop", "name": "Carew / Prentice", "network": "PVTA", "ref": "6315", "source": "massdot_import_081511"}}, {"type": "node", "id": 1408375587, "lat": 42.145039, "lon": -72.56575, "tags": {"attribution": "massDOT", "bus": "yes", "highway": "bus_stop", "name": "Carew / Windemere", "network": "PVTA", "ref": "6313", "source": "massdot_import_081511"}}, {"type": "node", "id": 1408375592, "lat": 42.1098331, "lon": -72.601077, "tags": {"attribution": "massDOT", "bus": "yes", "highway": "bus_stop", "name": "Carew and Main(Tripper Timepoint)", "network": "PVTA", "ref": "9312", "shelter": "yes", "source": "massdot_import_081511"}}, {"type": "node", "id": 1408375597, "lat": 42.118011, "lon": -72.594772, "tags": {"attribution": "massDOT", "bus": "yes", "highway": "bus_stop", "name": "Carew/Algonquin", "network": "PVTA", "ref": "1105", "source": "massdot_import_081511"}}, {"type": "node", "id": 1408375603, "lat": 42.118141, "lon": -72.594902, "tags": {"attribution": "massDOT", "bus": "yes", "highway": "bus_stop", "name": "Carew/Algonquin(opposite)", "network": "PVTA", "ref": "1103", "source": "massdot_import_081511"}}, {"type": "node", "id": 1408375616, "lat": 42.122349, "lon": -72.588051, "tags": {"attribution": "massDOT", "bus": "yes", "highway": "bus_stop", "name": "Carew/Armory", "network": "PVTA", "ref": "1022", "source": "massdot_import_081511"}}, {"type": "node", "id": 1408375621, "lat": 42.116768, "lon": -72.595131, "tags": {"attribution": "massDOT", "bus": "yes", "highway": "bus_stop", "name": "Carew/Cass", "network": "PVTA", "ref": "1137", "source": "massdot_import_081511"}}, {"type": "node", "id": 1408375633, "lat": 42.113861, "lon": -72.596405, "tags": {"attribution": "massDOT", "bus": "yes", "highway": "bus_stop", "name": "Carew/Chestnut", "network": "PVTA", "ref": "1225", "source": "massdot_import_081511"}}, {"type": "node", "id": 1408375636, "lat": 42.113903, "lon": -72.596519, "tags": {"attribution": "massDOT", "bus": "yes", "highway": "bus_stop", "name": "Carew/Chestnut", "network": "PVTA", "ref": "1222", "source": "massdot_import_081511"}}, {"type": "node", "id": 1408375648, "lat": 42.111443, "lon": -72.599663, "tags": {"attribution": "massDOT", "bus": "yes", "highway": "bus_stop", "name": "Carew/Dwight (1)", "network": "PVTA", "ref": "1301", "source": "massdot_import_081511"}}, {"type": "node", "id": 1408375649, "lat": 42.112438, "lon": -72.598488, "tags": {"attribution": "massDOT", "bus": "yes", "highway": "bus_stop", "name": "Carew/Dwight (1)", "network": "PVTA", "ref": "1270", "source": "massdot_import_081511"}}, {"type": "node", "id": 1408375660, "lat": 42.111294, "lon": -72.598663, "tags": {"attribution": "massDOT", "bus": "yes", "highway": "bus_stop", "name": "Carew/Dwight (2)", "network": "PVTA", "ref": "1290", "source": "massdot_import_081511"}}, {"type": "node", "id": 1408375666, "lat": 42.112148, "lon": -72.598892, "tags": {"attribution": "massDOT", "bus": "yes", "highway": "bus_stop", "name": "Carew/Dwight (2)", "network": "PVTA", "ref": "1282", "source": "massdot_import_081511"}}, {"type": "node", "id": 1408375674, "lat": 42.112305, "lon": -72.598495, "tags": {"attribution": "massDOT", "bus": "yes", "highway": "bus_stop", "name": "Carew/Dwight (3)", "network": "PVTA", "ref": "1274", "source": "massdot_import_081511"}}, {"type": "node", "id": 1408375679, "lat": 42.129208, "lon": -72.579224, "tags": {"attribution": "massDOT", "bus": "yes", "highway": "bus_stop", "name": "Carew/Judson", "network": "PVTA", "ref": "948", "source": "massdot_import_081511"}}, {"type": "node", "id": 1408375686, "lat": 42.115162, "lon": -72.595604, "tags": {"attribution": "massDOT", "bus": "yes", "highway": "bus_stop", "name": "Carew/Massasoit(opposite)", "network": "PVTA", "ref": "1203", "source": "massdot_import_081511"}}, {"type": "node", "id": 1408375694, "lat": 42.121227, "lon": -72.590012, "tags": {"attribution": "massDOT", "bus": "yes", "highway": "bus_stop", "name": "Carew/Nye", "network": "PVTA", "ref": "1042", "source": "massdot_import_081511"}}, {"type": "node", "id": 1408375712, "lat": 42.121113, "lon": -72.59053, "tags": {"attribution": "massDOT", "bus": "yes", "highway": "bus_stop", "name": "Carew/Parkside", "network": "PVTA", "ref": "1043", "source": "massdot_import_081511"}}, {"type": "node", "id": 1408375718, "lat": 42.131516, "lon": -72.574669, "tags": {"attribution": "massDOT", "bus": "yes", "highway": "bus_stop", "name": "Carew/Savoy", "network": "PVTA", "ref": "920", "source": "massdot_import_081511"}}, {"type": "node", "id": 1408375725, "lat": 42.134258, "lon": -72.570885, "tags": {"attribution": "massDOT", "bus": "yes", "highway": "bus_stop", "name": "Carew/Shaine", "network": "PVTA", "ref": "885", "source": "massdot_import_081511"}}, {"type": "node", "id": 1408375726, "lat": 42.132614, "lon": -72.573189, "tags": {"attribution": "massDOT", "bus": "yes", "highway": "bus_stop", "name": "Carew/Upland", "network": "PVTA", "ref": "902", "source": "massdot_import_081511"}}, {"type": "node", "id": 1408375740, "lat": 42.123489, "lon": -72.586601, "tags": {"attribution": "massDOT", "bus": "yes", "highway": "bus_stop", "name": "Carew/Van Horn(opposite)", "network": "PVTA", "ref": "1008", "source": "massdot_import_081511"}}, {"type": "node", "id": 1408376315, "lat": 42.094975, "lon": -72.603439, "tags": {"attribution": "massDOT", "bus": "yes", "highway": "bus_stop", "name": "Century Plaza", "network": "PVTA", "ref": "1571", "source": "massdot_import_081511"}}, {"type": "node", "id": 1408376333, "lat": 42.094753, "lon": -72.604744, "tags": {"attribution": "massDOT", "bus": "yes", "highway": "bus_stop", "name": "Century Plaza Big Y", "network": "PVTA", "ref": "1575", "source": "massdot_import_081511"}}, {"type": "node", "id": 1408376510, "lat": 42.174763, "lon": -72.575317, "tags": {"attribution": "massDOT", "bus": "yes", "highway": "bus_stop", "name": "Chicopee Marketplace", "network": "PVTA", "ref": "9201", "source": "massdot_import_081511"}}, {"type": "node", "id": 1408376732, "lat": 42.252857, "lon": -72.577797, "tags": {"attribution": "massDOT", "bus": "yes", "highway": "bus_stop", "name": "College & Morgan (Flag stop - signal driver)", "network": "PVTA", "ref": "5040", "source": "massdot_import_081511"}}, {"type": "node", "id": 1408376789, "lat": 42.107189, "lon": -72.578773, "tags": {"attribution": "massDOT", "bus": "yes", "highway": "bus_stop", "name": "Commerce High School", "network": "PVTA", "ref": "1387", "source": "massdot_import_081511"}}, {"type": "node", "id": 1408376792, "lat": 42.106869, "lon": -72.578941, "tags": {"attribution": "massDOT", "bus": "yes", "highway": "bus_stop", "name": "Commerce High School (opposite)", "network": "PVTA", "ref": "9140", "source": "massdot_import_081511"}}, {"type": "node", "id": 1408376900, "lat": 42.064991, "lon": -72.576241, "tags": {"attribution": "massDOT", "bus": "yes", "highway": "bus_stop", "name": "Converse & Highland (FLAG stop- signal the driver)", "network": "PVTA", "ref": "5000", "source": "massdot_import_081511"}}, {"type": "node", "id": 1408376911, "lat": 42.064934, "lon": -72.57354, "tags": {"attribution": "massDOT", "bus": "yes", "highway": "bus_stop", "name": "Converse & Laurel (FLAG stop- signal the driver)", "network": "PVTA", "ref": "5001", "source": "massdot_import_081511"}}, {"type": "node", "id": 1408376914, "lat": 42.066074, "lon": -72.561852, "tags": {"attribution": "massDOT", "bus": "yes", "highway": "bus_stop", "name": "Converse & Porter Lake (FLAG stop- signal driver)", "network": "PVTA", "ref": "5003", "source": "massdot_import_081511"}}, {"type": "node", "id": 1408376918, "lat": 42.065506, "lon": -72.567726, "tags": {"attribution": "massDOT", "bus": "yes", "highway": "bus_stop", "name": "Converse & Rugby (FLAG stop- signal the driver)", "network": "PVTA", "ref": "5002", "source": "massdot_import_081511"}}, {"type": "node", "id": 1408376921, "lat": 42.065346, "lon": -72.553253, "tags": {"attribution": "massDOT", "bus": "yes", "highway": "bus_stop", "name": "Converse & Williamsburg(FLAG stop - signal driver)", "network": "PVTA", "ref": "5004", "source": "massdot_import_081511"}}, {"type": "node", "id": 1408376929, "lat": 42.059601, "lon": -72.538742, "tags": {"attribution": "massDOT", "bus": "yes", "highway": "bus_stop", "name": "Converse and Dwight", "network": "PVTA", "ref": "9251", "source": "massdot_import_081511"}}, {"type": "node", "id": 1408376931, "lat": 42.08691, "lon": -72.502602, "tags": {"attribution": "massDOT", "bus": "yes", "highway": "bus_stop", "name": "Cooley/Caitlin", "network": "PVTA", "ref": "6031", "source": "massdot_import_081511"}}, {"type": "node", "id": 1408376934, "lat": 42.087002, "lon": -72.502693, "tags": {"attribution": "massDOT", "bus": "yes", "highway": "bus_stop", "name": "Cooley/Caitlin(opposite)", "network": "PVTA", "ref": "1734", "source": "massdot_import_081511"}}, {"type": "node", "id": 1408376950, "lat": 42.143856, "lon": -72.536591, "tags": {"attribution": "massDOT", "bus": "yes", "highway": "bus_stop", "name": "Cottage / Carando", "network": "PVTA", "ref": "6307", "source": "massdot_import_081511"}}, {"type": "node", "id": 1408376951, "lat": 42.144169, "lon": -72.542198, "tags": {"attribution": "massDOT", "bus": "yes", "highway": "bus_stop", "name": "Cottage / Industry", "network": "PVTA", "ref": "6308", "source": "massdot_import_081511"}}, {"type": "node", "id": 1408376954, "lat": 42.14333, "lon": -72.533974, "tags": {"attribution": "massDOT", "bus": "yes", "highway": "bus_stop", "name": "Cottage/Progress(opposite)", "network": "PVTA", "ref": "784", "source": "massdot_import_081511"}}, {"type": "node", "id": 1408376961, "lat": 42.158451, "lon": -72.58461, "tags": {"attribution": "massDOT", "bus": "yes", "highway": "bus_stop", "name": "Court House Plaza", "network": "PVTA", "ref": "666", "source": "massdot_import_081511"}}, {"type": "node", "id": 1408376962, "lat": 42.101463, "lon": -72.588219, "tags": {"attribution": "massDOT", "bus": "yes", "highway": "bus_stop", "name": "Court Square", "network": "PVTA", "public_transport": "platform", "ref": "1495", "source": "massdot_import_081511"}}, {"type": "node", "id": 1408377112, "lat": 42.088314, "lon": -72.560081, "tags": {"attribution": "massDOT", "bus": "yes", "highway": "bus_stop", "name": "DICKINSON / ALDERMAN", "network": "PVTA", "ref": "1709", "source": "massdot_import_081511"}}, {"type": "node", "id": 1408377113, "lat": 42.088406, "lon": -72.560364, "tags": {"attribution": "massDOT", "bus": "yes", "highway": "bus_stop", "name": "DICKINSON / ALDERMAN", "network": "PVTA", "ref": "1707", "source": "massdot_import_081511"}}, {"type": "node", "id": 1408377114, "lat": 42.08728, "lon": -72.558792, "tags": {"attribution": "massDOT", "bus": "yes", "highway": "bus_stop", "name": "DICKINSON / BURLINGTON", "network": "PVTA", "ref": "1720", "source": "massdot_import_081511"}}, {"type": "node", "id": 1408377115, "lat": 42.087456, "lon": -72.559158, "tags": {"attribution": "massDOT", "bus": "yes", "highway": "bus_stop", "name": "DICKINSON / BURLINGTON", "network": "PVTA", "ref": "1719", "source": "massdot_import_081511"}}, {"type": "node", "id": 1408377119, "lat": 42.077892, "lon": -72.553955, "tags": {"attribution": "massDOT", "bus": "yes", "highway": "bus_stop", "name": "DICKINSON / COPELAND", "network": "PVTA", "ref": "1811", "source": "massdot_import_081511"}}, {"type": "node", "id": 1408377128, "lat": 42.076405, "lon": -72.553589, "tags": {"attribution": "massDOT", "bus": "yes", "highway": "bus_stop", "name": "DICKINSON / ELWOOD", "network": "PVTA", "ref": "1819", "source": "massdot_import_081511"}}, {"type": "node", "id": 1408377129, "lat": 42.090672, "lon": -72.566353, "tags": {"attribution": "massDOT", "bus": "yes", "highway": "bus_stop", "name": "DICKINSON / EUCLID", "network": "PVTA", "ref": "1676", "source": "massdot_import_081511"}}, {"type": "node", "id": 1408377130, "lat": 42.090775, "lon": -72.56675, "tags": {"attribution": "massDOT", "bus": "yes", "highway": "bus_stop", "name": "DICKINSON / EUCLID", "network": "PVTA", "ref": "1674", "source": "massdot_import_081511"}}, {"type": "node", "id": 1408377131, "lat": 42.090076, "lon": -72.565247, "tags": {"attribution": "massDOT", "bus": "yes", "highway": "bus_stop", "name": "DICKINSON / HALL", "network": "PVTA", "ref": "1683", "source": "massdot_import_081511"}}, {"type": "node", "id": 1408377132, "lat": 42.090157, "lon": -72.565102, "tags": {"attribution": "massDOT", "bus": "yes", "highway": "bus_stop", "name": "DICKINSON / HALL", "network": "PVTA", "ref": "1681", "source": "massdot_import_081511"}}, {"type": "node", "id": 1408377133, "lat": 42.089241, "lon": -72.56208, "tags": {"attribution": "massDOT", "bus": "yes", "highway": "bus_stop", "name": "DICKINSON / KENWOOD", "network": "PVTA", "ref": "1696", "source": "massdot_import_081511"}}, {"type": "node", "id": 1408377134, "lat": 42.089699, "lon": -72.563286, "tags": {"attribution": "massDOT", "bus": "yes", "highway": "bus_stop", "name": "DICKINSON / OAKLAND", "network": "PVTA", "ref": "1689", "source": "massdot_import_081511"}}, {"type": "node", "id": 1408377135, "lat": 42.07967, "lon": -72.554352, "tags": {"attribution": "massDOT", "bus": "yes", "highway": "bus_stop", "name": "DICKINSON / OLMSTED", "network": "PVTA", "ref": "1803", "source": "massdot_import_081511"}}, {"type": "node", "id": 1408377140, "lat": 42.07996, "lon": -72.554276, "tags": {"attribution": "massDOT", "bus": "yes", "highway": "bus_stop", "name": "DICKINSON / OLMSTED", "network": "PVTA", "ref": "1799", "source": "massdot_import_081511"}}, {"type": "node", "id": 1408377141, "lat": 42.091846, "lon": -72.567749, "tags": {"attribution": "massDOT", "bus": "yes", "highway": "bus_stop", "name": "DICKINSON / SACHEM", "network": "PVTA", "ref": "1651", "source": "massdot_import_081511"}}, {"type": "node", "id": 1408377142, "lat": 42.085857, "lon": -72.557472, "tags": {"attribution": "massDOT", "bus": "yes", "highway": "bus_stop", "name": "DICKINSON / SUMNER", "network": "PVTA", "ref": "1746", "source": "massdot_import_081511"}}, {"type": "node", "id": 1408377143, "lat": 42.086376, "lon": -72.557831, "tags": {"attribution": "massDOT", "bus": "yes", "highway": "bus_stop", "name": "DICKINSON / SUMNER", "network": "PVTA", "ref": "1736", "source": "massdot_import_081511"}}, {"type": "node", "id": 1408377144, "lat": 42.086433, "lon": -72.558044, "tags": {"attribution": "massDOT", "bus": "yes", "highway": "bus_stop", "name": "DICKINSON / SUMNER", "network": "PVTA", "ref": "1735", "source": "massdot_import_081511"}}, {"type": "node", "id": 1408377145, "lat": 42.077473, "lon": -72.554001, "tags": {"attribution": "massDOT", "bus": "yes", "highway": "bus_stop", "name": "DICKINSON / TEXEL", "network": "PVTA", "ref": "1813", "source": "massdot_import_081511"}}, {"type": "node", "id": 1408377146, "lat": 42.083607, "lon": -72.555176, "tags": {"attribution": "massDOT", "bus": "yes", "highway": "bus_stop", "name": "DICKINSON / TRAFTON", "network": "PVTA", "ref": "1778", "source": "massdot_import_081511"}}, {"type": "node", "id": 1408377147, "lat": 42.083752, "lon": -72.555176, "tags": {"attribution": "massDOT", "bus": "yes", "highway": "bus_stop", "name": "DICKINSON / TRAFTON", "network": "PVTA", "ref": "1773", "source": "massdot_import_081511"}}, {"type": "node", "id": 1408377149, "lat": 42.084824, "lon": -72.556244, "tags": {"attribution": "massDOT", "bus": "yes", "highway": "bus_stop", "name": "DICKINSON / TRENTON", "network": "PVTA", "ref": "1762", "source": "massdot_import_081511"}}, {"type": "node", "id": 1408377150, "lat": 42.084862, "lon": -72.556442, "tags": {"attribution": "massDOT", "bus": "yes", "highway": "bus_stop", "name": "DICKINSON / TRENTON", "network": "PVTA", "ref": "1760", "source": "massdot_import_081511"}}, {"type": "node", "id": 1408377160, "lat": 42.081966, "lon": -72.554604, "tags": {"attribution": "massDOT", "bus": "yes", "highway": "bus_stop", "name": "DICKINSON / WASHINGTON", "network": "PVTA", "ref": "1788", "source": "massdot_import_081511"}}, {"type": "node", "id": 1408377161, "lat": 42.082291, "lon": -72.554771, "tags": {"attribution": "massDOT", "bus": "yes", "highway": "bus_stop", "name": "DICKINSON / WASHINGTON", "network": "PVTA", "ref": "1786", "source": "massdot_import_081511"}}, {"type": "node", "id": 1408377170, "lat": 42.09198, "lon": -72.567993, "tags": {"attribution": "massDOT", "bus": "yes", "highway": "bus_stop", "name": "DICKINSON / WIGWAM", "network": "PVTA", "ref": "1650", "source": "massdot_import_081511"}}, {"type": "node", "id": 1408377177, "lat": 42.135918, "lon": -72.474266, "tags": {"attribution": "massDOT", "bus": "yes", "highway": "bus_stop", "name": "DIPPING HOLE / BLACKSMITH", "network": "PVTA", "ref": "877", "source": "massdot_import_081511"}}, {"type": "node", "id": 1408377185, "lat": 42.135929, "lon": -72.472038, "tags": {"attribution": "massDOT", "bus": "yes", "highway": "bus_stop", "name": "DIPPING HOLE / MELIKIAN", "network": "PVTA", "ref": "878", "source": "massdot_import_081511"}}, {"type": "node", "id": 1408377186, "lat": 42.135769, "lon": -72.46624, "tags": {"attribution": "massDOT", "bus": "yes", "highway": "bus_stop", "name": "DIPPING HOLE / STONY HILL", "network": "PVTA", "ref": "882", "source": "massdot_import_081511"}}, {"type": "node", "id": 1408377199, "lat": 42.073254, "lon": -72.538589, "tags": {"attribution": "massDOT", "bus": "yes", "highway": "bus_stop", "name": "DWIGHT / ANGLESEA", "network": "PVTA", "ref": "1832", "source": "massdot_import_081511"}}, {"type": "node", "id": 1408377203, "lat": 42.073273, "lon": -72.538498, "tags": {"attribution": "massDOT", "bus": "yes", "highway": "bus_stop", "name": "DWIGHT / CHANNING", "network": "PVTA", "ref": "1834", "source": "massdot_import_081511"}}, {"type": "node", "id": 1408377206, "lat": 42.070313, "lon": -72.537865, "tags": {"attribution": "massDOT", "bus": "yes", "highway": "bus_stop", "name": "DWIGHT / COCHRANE", "network": "PVTA", "ref": "1841", "source": "massdot_import_081511"}}, {"type": "node", "id": 1408377211, "lat": 42.108677, "lon": -72.595543, "tags": {"attribution": "massDOT", "bus": "yes", "highway": "bus_stop", "name": "DWIGHT / CONGRESS", "network": "PVTA", "public_transport": "platform", "ref": "1920", "source": "massdot_import_081511"}}, {"type": "node", "id": 1408377213, "lat": 42.074982, "lon": -72.538841, "tags": {"attribution": "massDOT", "bus": "yes", "highway": "bus_stop", "name": "DWIGHT / FENIMORE", "network": "PVTA", "ref": "1825", "source": "massdot_import_081511"}}, {"type": "node", "id": 1408377224, "lat": 42.112198, "lon": -72.599747, "tags": {"attribution": "massDOT", "bus": "yes", "highway": "bus_stop", "name": "DWIGHT / GROSVENOR", "network": "PVTA", "ref": "1280", "source": "massdot_import_081511"}}, {"type": "node", "id": 1408377233, "lat": 42.070808, "lon": -72.538132, "tags": {"attribution": "massDOT", "bus": "yes", "highway": "bus_stop", "name": "DWIGHT / HARPER", "network": "PVTA", "ref": "1838", "source": "massdot_import_081511"}}, {"type": "node", "id": 1408377236, "lat": 42.104088, "lon": -72.58905, "tags": {"attribution": "massDOT", "bus": "yes", "highway": "bus_stop", "name": "DWIGHT / HARRISON", "network": "PVTA", "network:wikidata": "Q7196828", "public_transport": "platform", "ref": "1457", "source": "massdot_import_081511"}}, {"type": "node", "id": 1408377249, "lat": 42.077404, "lon": -72.539192, "tags": {"attribution": "massDOT", "bus": "yes", "highway": "bus_stop", "name": "DWIGHT / HARTWICK", "network": "PVTA", "ref": "1816", "source": "massdot_import_081511"}}, {"type": "node", "id": 1408377251, "lat": 42.077446, "lon": -72.539108, "tags": {"attribution": "massDOT", "bus": "yes", "highway": "bus_stop", "name": "DWIGHT / HARTWICK", "network": "PVTA", "ref": "1814", "source": "massdot_import_081511"}}, {"type": "node", "id": 1408377257, "lat": 42.113567, "lon": -72.601318, "tags": {"attribution": "massDOT", "bus": "yes", "highway": "bus_stop", "name": "DWIGHT / HEBRON", "network": "PVTA", "ref": "1235", "source": "massdot_import_081511"}}, {"type": "node", "id": 1408377261, "lat": 42.07859, "lon": -72.539619, "tags": {"attribution": "massDOT", "bus": "yes", "highway": "bus_stop", "name": "DWIGHT / IRVING", "network": "PVTA", "ref": "1810", "source": "massdot_import_081511"}}, {"type": "node", "id": 1408377274, "lat": 42.115166, "lon": -72.602791, "tags": {"attribution": "massDOT", "bus": "yes", "highway": "bus_stop", "name": "DWIGHT / OSGOOD", "network": "PVTA", "ref": "1208", "source": "massdot_import_081511"}}, {"type": "node", "id": 1408377277, "lat": 42.067608, "lon": -72.538574, "tags": {"attribution": "massDOT", "bus": "yes", "highway": "bus_stop", "name": "DWIGHT / PUTTING GREEN", "network": "PVTA", "ref": "1856", "source": "massdot_import_081511"}}, {"type": "node", "id": 1408377283, "lat": 42.081036, "lon": -72.539902, "tags": {"attribution": "massDOT", "bus": "yes", "highway": "bus_stop", "name": "DWIGHT / STANTON", "network": "PVTA", "ref": "1795", "source": "massdot_import_081511"}}, {"type": "node", "id": 1408377290, "lat": 42.105911, "lon": -72.591827, "tags": {"attribution": "massDOT", "bus": "yes", "highway": "bus_stop", "name": "DWIGHT / TAYLOR", "network": "PVTA", "network:wikidata": "Q7196828", "public_transport": "platform", "ref": "6411", "shelter": "no", "source": "massdot_import_081511"}}, {"type": "node", "id": 1408377295, "lat": 42.081173, "lon": -72.540016, "tags": {"attribution": "massDOT", "bus": "yes", "highway": "bus_stop", "name": "DWIGHT / WHITE", "network": "PVTA", "ref": "1793", "source": "massdot_import_081511"}}, {"type": "node", "id": 1408377297, "lat": 42.105145, "lon": -72.59066, "tags": {"attribution": "massDOT", "bus": "yes", "highway": "bus_stop", "name": "DWIGHT / WORTHINGTON", "network": "PVTA", "network:wikidata": "Q7196828", "public_transport": "platform", "ref": "1921", "source": "massdot_import_081511"}}, {"type": "node", "id": 1408377357, "lat": 42.1158217, "lon": -72.5251358, "tags": {"attribution": "massDOT", "bus": "yes", "highway": "bus_stop", "name": "Duggan Middle School", "network": "PVTA", "ref": "1183", "source": "massdot_import_081511"}}, {"type": "node", "id": 1408377358, "lat": 42.116009, "lon": -72.5252405, "tags": {"attribution": "massDOT", "bus": "yes", "highway": "bus_stop", "name": "Duggan Middle School", "network": "PVTA", "ref": "1177", "source": "massdot_import_081511"}}, {"type": "node", "id": 1408377365, "lat": 42.074924, "lon": -72.538734, "tags": {"attribution": "massDOT", "bus": "yes", "highway": "bus_stop", "name": "Dwight/Fenimore", "network": "PVTA", "ref": "1826", "source": "massdot_import_081511"}}, {"type": "node", "id": 1408377366, "lat": 42.067131, "lon": -72.538956, "tags": {"attribution": "massDOT", "bus": "yes", "highway": "bus_stop", "name": "Dwight/Putting Green (opposite)", "network": "PVTA", "ref": "1857", "source": "massdot_import_081511"}}, {"type": "node", "id": 1408377469, "lat": 42.250069, "lon": -72.561798, "tags": {"attribution": "massDOT", "bus": "yes", "highway": "bus_stop", "name": "East & Morgan (Flag stop - signal driver)", "network": "PVTA", "ref": "5017", "source": "massdot_import_081511"}}, {"type": "node", "id": 1408377490, "lat": 42.054165, "lon": -72.533615, "tags": {"attribution": "massDOT", "bus": "yes", "highway": "bus_stop", "name": "East Village Place", "network": "PVTA", "ref": "1882", "source": "massdot_import_081511"}}, {"type": "node", "id": 1408377498, "lat": 42.139763, "lon": -72.486862, "tags": {"attribution": "massDOT", "bus": "yes", "highway": "bus_stop", "name": "Eastfield Mall (Flag Stop)", "network": "PVTA", "ref": "824", "source": "massdot_import_081511"}}, {"type": "node", "id": 1408377499, "lat": 42.141808, "lon": -72.491371, "tags": {"attribution": "massDOT", "bus": "yes", "highway": "bus_stop", "name": "Eastfield Mall (Flag Stop)", "network": "PVTA", "ref": "801", "source": "massdot_import_081511"}}, {"type": "node", "id": 1408377500, "lat": 42.141029, "lon": -72.485039, "tags": {"attribution": "massDOT", "bus": "yes", "highway": "bus_stop", "name": "Eastfield Mall 3", "network": "PVTA", "ref": "806", "source": "massdot_import_081511"}}, {"type": "node", "id": 1408377523, "lat": 42.068836, "lon": -72.541428, "tags": {"attribution": "massDOT", "bus": "yes", "highway": "bus_stop", "name": "Elks Club", "network": "PVTA", "ref": "1848", "source": "massdot_import_081511"}}, {"type": "node", "id": 1408377554, "lat": 42.111908, "lon": -72.579865, "tags": {"attribution": "massDOT", "bus": "yes", "highway": "bus_stop", "name": "FEDERAL / PEARL", "network": "PVTA", "ref": "1293", "source": "massdot_import_081511"}}, {"type": "node", "id": 1408377555, "lat": 42.112011, "lon": -72.580048, "tags": {"attribution": "massDOT", "bus": "yes", "highway": "bus_stop", "name": "FEDERAL / WORTHINGTON", "network": "PVTA", "ref": "1289", "source": "massdot_import_081511"}}, {"type": "node", "id": 1408377556, "lat": 42.139027, "lon": -72.487022, "tags": {"attribution": "massDOT", "bus": "yes", "highway": "bus_stop", "name": "FERNBANK / BULAT", "network": "PVTA", "ref": "839", "source": "massdot_import_081511"}}, {"type": "node", "id": 1408377557, "lat": 42.139534, "lon": -72.489288, "tags": {"attribution": "massDOT", "bus": "yes", "highway": "bus_stop", "name": "FERNBANK / BULAT", "network": "PVTA", "ref": "831", "source": "massdot_import_081511"}}, {"type": "node", "id": 1408377559, "lat": 42.140171, "lon": -72.491852, "tags": {"attribution": "massDOT", "bus": "yes", "highway": "bus_stop", "name": "FERNBANK / FLINT", "network": "PVTA", "ref": "822", "source": "massdot_import_081511"}}, {"type": "node", "id": 1408377560, "lat": 42.140179, "lon": -72.4916, "tags": {"attribution": "massDOT", "bus": "yes", "highway": "bus_stop", "name": "FERNBANK / FLINT", "network": "PVTA", "ref": "821", "source": "massdot_import_081511"}}, {"type": "node", "id": 1408377562, "lat": 42.089008, "lon": -72.576431, "tags": {"attribution": "massDOT", "bus": "yes", "highway": "bus_stop", "name": "FORT PLEASANT / BLAKE HILL", "network": "PVTA", "ref": "1699", "source": "massdot_import_081511"}}, {"type": "node", "id": 1408377563, "lat": 42.089386, "lon": -72.576813, "tags": {"attribution": "massDOT", "bus": "yes", "highway": "bus_stop", "name": "FORT PLEASANT / BLAKE HILL", "network": "PVTA", "ref": "1692", "source": "massdot_import_081511"}}, {"type": "node", "id": 1408377564, "lat": 42.086643, "lon": -72.575142, "tags": {"attribution": "massDOT", "bus": "yes", "highway": "bus_stop", "name": "FORT PLEASANT / CHASE", "network": "PVTA", "ref": "1728", "source": "massdot_import_081511"}}, {"type": "node", "id": 1408377565, "lat": 42.088413, "lon": -72.576263, "tags": {"attribution": "massDOT", "bus": "yes", "highway": "bus_stop", "name": "FORT PLEASANT / LEETE", "network": "PVTA", "ref": "1705", "source": "massdot_import_081511"}}, {"type": "node", "id": 1408377566, "lat": 42.083363, "lon": -72.573692, "tags": {"attribution": "massDOT", "bus": "yes", "highway": "bus_stop", "name": "FORT PLEASANT / SUMNER", "network": "PVTA", "ref": "1779", "source": "massdot_import_081511"}}, {"type": "node", "id": 1408377567, "lat": 42.084484, "lon": -72.57428, "tags": {"attribution": "massDOT", "bus": "yes", "highway": "bus_stop", "name": "FORT PLEASANT / WARNER", "network": "PVTA", "ref": "1764", "source": "massdot_import_081511"}}, {"type": "node", "id": 1408377568, "lat": 42.084984, "lon": -72.574219, "tags": {"attribution": "massDOT", "bus": "yes", "highway": "bus_stop", "name": "FORT PLEASANT / WARNER", "network": "PVTA", "ref": "6374", "source": "massdot_import_081511"}}, {"type": "node", "id": 1408377569, "lat": 42.110802, "lon": -72.592278, "tags": {"attribution": "massDOT", "bus": "yes", "highway": "bus_stop", "name": "FRANKLIN / LIBERTY", "network": "PVTA", "ref": "1919", "source": "massdot_import_081511"}}, {"type": "node", "id": 1408377570, "lat": 42.111309, "lon": -72.592133, "tags": {"attribution": "massDOT", "bus": "yes", "highway": "bus_stop", "name": "FRANKLIN / SAAB", "network": "PVTA", "ref": "6007", "source": "massdot_import_081511"}}, {"type": "node", "id": 1408377571, "lat": 42.147984, "lon": -72.591995, "tags": {"attribution": "massDOT", "bus": "yes", "highway": "bus_stop", "name": "FRONT / ACADEMY", "network": "PVTA", "public_transport": "platform", "ref": "6352", "source": "massdot_import_081511"}}, {"type": "node", "id": 1408377572, "lat": 42.148003, "lon": -72.595078, "tags": {"attribution": "massDOT", "bus": "yes", "highway": "bus_stop", "name": "FRONT / CYMAN", "network": "PVTA", "public_transport": "platform", "ref": "6351", "source": "massdot_import_081511"}}, {"type": "node", "id": 1408377573, "lat": 42.150608, "lon": -72.585327, "tags": {"attribution": "massDOT", "bus": "yes", "highway": "bus_stop", "name": "FRONT / ELLERTON", "network": "PVTA", "ref": "715", "source": "massdot_import_081511"}}, {"type": "node", "id": 1408377574, "lat": 42.148079, "lon": -72.602974, "tags": {"attribution": "massDOT", "bus": "yes", "highway": "bus_stop", "name": "FRONT / GRAPE", "network": "PVTA", "public_transport": "platform", "ref": "6032", "source": "massdot_import_081511"}}, {"type": "node", "id": 1408377576, "lat": 42.152859, "lon": -72.584343, "tags": {"attribution": "massDOT", "bus": "yes", "highway": "bus_stop", "name": "FRONT / GROVE", "network": "PVTA", "ref": "6355", "source": "massdot_import_081511"}}, {"type": "node", "id": 1408377577, "lat": 42.148041, "lon": -72.598869, "tags": {"attribution": "massDOT", "bus": "yes", "highway": "bus_stop", "name": "FRONT / ORCHARD", "network": "PVTA", "public_transport": "platform", "ref": "6350", "source": "massdot_import_081511"}}, {"type": "node", "id": 1408377578, "lat": 42.148148, "lon": -72.600212, "tags": {"attribution": "massDOT", "bus": "yes", "highway": "bus_stop", "name": "FRONT / QUARRY", "network": "PVTA", "public_transport": "platform", "ref": "734", "source": "massdot_import_081511"}}, {"type": "node", "id": 1408377611, "lat": 42.13884, "lon": -72.509773, "tags": {"attribution": "massDOT", "bus": "yes", "highway": "bus_stop", "name": "Five Mile Pond Park", "network": "PVTA", "ref": "840", "source": "massdot_import_081511"}}, {"type": "node", "id": 1408377612, "lat": 42.092178, "lon": -72.501015, "tags": {"attribution": "massDOT", "bus": "yes", "highway": "bus_stop", "name": "Five Town Plaza", "network": "PVTA", "ref": "1661", "source": "massdot_import_081511"}}, {"type": "node", "id": 1408377613, "lat": 42.198162, "lon": -72.556625, "tags": {"attribution": "massDOT", "bus": "yes", "highway": "bus_stop", "name": "Fleming Industries", "network": "PVTA", "ref": "480", "source": "massdot_import_081511"}}, {"type": "node", "id": 1408377623, "lat": 42.084564, "lon": -72.565819, "tags": {"attribution": "massDOT", "bus": "yes", "highway": "bus_stop", "name": "Forrest Park Entrance", "network": "PVTA", "ref": "1765", "source": "massdot_import_081511"}}, {"type": "node", "id": 1408377625, "lat": 42.086624, "lon": -72.574905, "tags": {"attribution": "massDOT", "bus": "yes", "highway": "bus_stop", "name": "Fort Pleasant/Chase", "network": "PVTA", "ref": "1729", "source": "massdot_import_081511"}}, {"type": "node", "id": 1408377626, "lat": 42.088238, "lon": -72.575897, "tags": {"attribution": "massDOT", "bus": "yes", "highway": "bus_stop", "name": "Fort Pleasant/Forrest Park Ave.", "network": "PVTA", "ref": "1708", "source": "massdot_import_081511"}}, {"type": "node", "id": 1408377666, "lat": 42.148064, "lon": -72.591881, "tags": {"attribution": "massDOT", "bus": "yes", "highway": "bus_stop", "name": "Front/Academy(opposite)", "network": "PVTA", "public_transport": "platform", "ref": "739", "source": "massdot_import_081511"}}, {"type": "node", "id": 1408377670, "lat": 42.148083, "lon": -72.59478, "tags": {"attribution": "massDOT", "bus": "yes", "highway": "bus_stop", "name": "Front/Cyman", "network": "PVTA", "public_transport": "platform", "ref": "738", "source": "massdot_import_081511"}}, {"type": "node", "id": 1408377675, "lat": 42.150696, "lon": -72.585411, "tags": {"attribution": "massDOT", "bus": "yes", "highway": "bus_stop", "name": "Front/Ellerton(opposite)", "network": "PVTA", "ref": "714", "source": "massdot_import_081511"}}, {"type": "node", "id": 1408377679, "lat": 42.148129, "lon": -72.598648, "tags": {"attribution": "massDOT", "bus": "yes", "highway": "bus_stop", "name": "Front/Orchard(opposite)", "network": "PVTA", "public_transport": "platform", "ref": "735", "source": "massdot_import_081511"}}, {"type": "node", "id": 1408377687, "lat": 42.14904, "lon": -72.587463, "tags": {"attribution": "massDOT", "bus": "yes", "highway": "bus_stop", "name": "Front/Wheatland(opposite)", "network": "PVTA", "public_transport": "platform", "ref": "726", "source": "massdot_import_081511"}}, {"type": "node", "id": 1408377721, "lat": 42.150383, "lon": -72.508118, "tags": {"attribution": "massDOT", "bus": "yes", "highway": "bus_stop", "name": "GOODWIN / DARLING", "network": "PVTA", "ref": "719", "source": "massdot_import_081511"}},