{"version": 0.6, "generator": "Overpass API 0.7.59.2 0994154d", "osm3s": {"timestamp_osm_base": "2023-02-23T16:29:53Z", "copyright": "The data included in this document is from www.openstreetmap.org. The data is made available under ODbL."}, "elements": [{"type": "node", "id": 1408370530, "lat": 42.3176652, "lon": -72.6331165, "tags": {"attribution": "massDOT", "bench": "yes", "bus": "yes", "highway": "bus_stop", "name": "Academy of Music - Northampton", "network": "FRTA", "ref": "S25", "shelter": "yes", "source": "massdot_import_081511", "tactile_paving": "no"}}, {"type": "node", "id": 1408370942, "lat": 42.333988, "lon": -72.643105, "tags": {"attribution": "massDOT", "bus": "yes", "highway": "bus_stop", "name": "BARRETT / JACKSON", "network": "PVTA", "ref": "213", "source": "massdot_import_081511"}}, {"type": "node", "id": 1408370953, "lat": 42.33408, "lon": -72.643547, "tags": {"attribution": "massDOT", "bus": "yes", "highway": "bus_stop", "name": "BARRETT / JACKSON", "network": "PVTA", "ref": "212", "source": "massdot_import_081511"}}, {"type": "node", "id": 1408370979, "lat": 42.333443, "lon": -72.636169, "tags": {"attribution": "massDOT", "bus": "yes", "highway": "bus_stop", "name": "BARRETT / KING", "network": "PVTA", "ref": "218", "source": "massdot_import_081511", "wheelchair": "yes"}}, {"type": "node", "id": 1408370983, "lat": 42.3335, "lon": -72.636482, "tags": {"attribution": "massDOT", "bus": "yes", "highway": "bus_stop", "name": "BARRETT / KING", "network": "PVTA", "ref": "216", "source": "massdot_import_081511", "wheelchair": "yes"}}, {"type": "node", "id": 1408372540, "lat": 42.338284, "lon": -72.648781, "tags": {"attribution": "massDOT", "bus": "yes", "highway": "bus_stop", "name": "BRIDGE / HATFIELD", "network": "PVTA", "network:wikidata": "Q7196828", "network:wikipedia": "en:Pioneer Valley Transit Authority", "public_transport": "platform", "ref": "189", "shelter": "no", "source": "massdot_import_081511"}}, {"type": "node", "id": 1408372830, "lat": 42.33374, "lon": -72.639832, "tags": {"attribution": "massDOT", "bus": "yes", "highway": "bus_stop", "name": "Barrett/Hathaway Farms (inbound)", "network": "PVTA", "ref": "215", "source": "massdot_import_081511", "wheelchair": "yes"}}, {"type": "node", "id": 1408372840, "lat": 42.333782, "lon": -72.639969, "tags": {"attribution": "massDOT", "bus": "yes", "highway": "bus_stop", "name": "Barrett/Hathaway Farms (outbound)", "network": "PVTA", "ref": "214", "source": "massdot_import_081511", "wheelchair": "yes"}}, {"type": "node", "id": 1408372912, "lat": 42.337433, "lon": -72.606346, "tags": {"attribution": "massDOT", "bus": "yes", "departures_board": "no", "highway": "bus_stop", "name": "Bay Road DC (E)", "network": "PVTA", "network:wikidata": "Q7196828", "network:wikipedia": "en:Pioneer Valley Transit Authority", "public_transport": "platform", "ref": "8022", "shelter": "no", "source": "massdot_import_081511"}}, {"type": "node", "id": 1408372924, "lat": 42.337688, "lon": -72.60643, "tags": {"attribution": "massDOT", "bus": "yes", "departures_board": "no", "highway": "bus_stop", "name": "Bay Road DC (W)", "network": "PVTA", "network:wikidata": "Q7196828", "network:wikipedia": "en:Pioneer Valley Transit Authority", "public_transport": "platform", "ref": "8020", "shelter": "no", "source": "massdot_import_081511"}}, {"type": "node", "id": 1408373640, "lat": 42.3414964, "lon": -72.6410866, "tags": {"attribution": "massDOT", "bus": "yes", "highway": "bus_stop", "name": "Big Y/Wal-Mart", "network": "FRTA", "public_transport": "platform", "ref": "S51", "source": "massdot_import_081511"}}, {"type": "node", "id": 1408373946, "lat": 42.376766, "lon": -72.705956, "tags": {"attribution": "massDOT", "bus": "yes", "highway": "bus_stop", "name": "Brassworks IB", "network": "PVTA", "ref": "9011", "source": "massdot_import_081511"}}, {"type": "node", "id": 1408374813, "lat": 42.335014, "lon": -72.667587, "tags": {"attribution": "massDOT", "bench": "no", "bin": "no", "bus": "yes", "highway": "bus_stop", "name": "Chestnut/Main", "network": "PVTA", "network:wikidata": "Q7196828", "network:wikipedia": "en:Pioneer Valley Transit Authority", "public_transport": "platform", "ref": "207", "shelter": "no", "source": "massdot_import_081511", "tactile_paving": "no"}}, {"type": "node", "id": 1408376930, "lat": 42.313232, "lon": -72.626892, "tags": {"attribution": "massDOT", "bus": "yes", "highway": "bus_stop", "name": "Conz St/ Dialysis Center", "network": "PVTA", "ref": "268", "source": "massdot_import_081511"}}, {"type": "node", "id": 1408376949, "lat": 42.331215, "lon": -72.676529, "tags": {"attribution": "massDOT", "bench": "no", "bin": "no", "bus": "yes", "highway": "bus_stop", "name": "Corticelli/ Pine OB", "network": "PVTA", "network:wikidata": "Q7196828", "network:wikipedia": "en:Pioneer Valley Transit Authority", "public_transport": "platform", "ref": "9007", "shelter": "no", "source": "massdot_import_081511"}}, {"type": "node", "id": 1408377320, "lat": 42.3329286, "lon": -72.6215615, "tags": {"attribution": "massDOT", "bench": "no", "bus": "yes", "highway": "bus_stop", "name": "Damon Road", "network": "PVTA", "ref": "219", "shelter": "no", "source": "massdot_import_081511", "wheelchair": "no"}}, {"type": "node", "id": 1408377327, "lat": 42.46567, "lon": -72.606647, "tags": {"attribution": "massDOT", "bus": "yes", "highway": "bus_stop", "name": "Deerfield Indus. Park", "network": "FRTA", "ref": "S35", "source": "massdot_import_081511"}}, {"type": "node", "id": 1408377529, "lat": 42.326138, "lon": -72.649696, "tags": {"attribution": "massDOT", "bus": "yes", "highway": "bus_stop", "name": "Elm/Connecting Road (Child's Park)", "network": "PVTA", "ref": "234", "source": "massdot_import_081511"}}, {"type": "node", "id": 1408377530, "lat": 42.32518, "lon": -72.649391, "tags": {"attribution": "massDOT", "bus": "yes", "highway": "bus_stop", "name": "Elm/Connecting Road (Northampton High School)", "network": "PVTA", "ref": "235", "source": "massdot_import_081511"}}, {"type": "node", "id": 1408377561, "lat": 42.329987, "lon": -72.678757, "tags": {"attribution": "massDOT", "bench": "no", "bin": "no", "bus": "yes", "highway": "bus_stop", "name": "FLORENCE / RYAN", "network": "PVTA", "network:wikidata": "Q7196828", "network:wikipedia": "en:Pioneer Valley Transit Authority", "public_transport": "platform", "ref": "227", "shelter": "no", "source": "massdot_import_081511", "tactile_paving": "no"}}, {"type": "node", "id": 1408377580, "lat": 42.313747, "lon": -72.629555, "tags": {"attribution": "massDOT", "bus": "yes", "highway": "bus_stop", "name": "FRUIT / SMITH", "network": "PVTA", "ref": "266", "source": "massdot_import_081511"}}, {"type": "node", "id": 1408377614, "lat": 42.326626, "lon": -72.677513, "tags": {"attribution": "massDOT", "bench": "no", "bin": "no", "bus": "yes", "highway": "bus_stop", "name": "Florence & Scanlon (Flag stop - signal driver)", "network": "PVTA", "ref": "5073", "shelter": "no", "source": "massdot_import_081511", "tactile_paving": "no"}}, {"type": "node", "id": 1408377615, "lat": 42.335506, "lon": -72.672363, "tags": {"attribution": "massDOT", "bench": "no", "bin": "no", "bus": "yes", "highway": "bus_stop", "name": "Florence Center", "network": "PVTA", "network:wikidata": "Q7196828", "network:wikipedia": "en:Pioneer Valley Transit Authority", "public_transport": "platform", "ref": "204", "shelter": "no", "source": "massdot_import_081511", "tactile_paving": "no"}}, {"type": "node", "id": 1408377616, "lat": 42.3238129, "lon": -72.6767152, "tags": {"attribution": "massDOT", "bench": "yes", "bin": "no", "bus": "yes", "highway": "bus_stop", "name": "Florence Heights", "network": "PVTA", "ref": "237", "shelter": "yes", "source": "massdot_import_081511", "tactile_paving": "no"}}, {"type": "node", "id": 1408377624, "lat": 42.337269, "lon": -72.670547, "tags": {"attribution": "massDOT", "bench": "no", "bus": "yes", "highway": "bus_stop", "name": "Forsander Apt.", "network": "PVTA", "network:wikidata": "Q7196828", "network:wikipedia": "en:Pioneer Valley Transit Authority", "public_transport": "platform", "ref": "192", "shelter": "no", "source": "massdot_import_081511"}}, {"type": "node", "id": 1408377699, "lat": 42.4833429, "lon": -72.6050828, "tags": {"attribution": "massDOT", "bus": "yes", "highway": "bus_stop", "name": "Frontier High School", "network": "FRTA", "ref": "S34", "source": "massdot_import_081511"}}, {"type": "node", "id": 1408377703, "lat": 42.315132, "lon": -72.631729, "tags": {"attribution": "massDOT", "bus": "yes", "highway": "bus_stop", "name": "Fruit St/ Old South St", "network": "PVTA", "ref": "263", "source": "massdot_import_081511"}}, {"type": "node", "id": 1408377936, "lat": 42.338551, "lon": -72.64827, "tags": {"attribution": "massDOT", "bus": "yes", "highway": "bus_stop", "name": "HATFIELD / BRIDGE", "network": "PVTA", "network:wikidata": "Q7196828", "network:wikipedia": "en:Pioneer Valley Transit Authority", "public_transport": "platform", "ref": "188", "shelter": "no", "source": "massdot_import_081511"}}, {"type": "node", "id": 1408378022, "lat": 42.307316, "lon": -72.658577, "tags": {"attribution": "massDOT", "bus": "yes", "highway": "bus_stop", "name": "Hampshire County House of Corrections", "network": "PVTA", "ref": "9095", "source": "massdot_import_081511"}}, {"type": "node", "id": 1408378028, "lat": 42.340733, "lon": -72.642075, "tags": {"attribution": "massDOT", "bus": "yes", "highway": "bus_stop", "name": "Hampshire Plaza/ Big Y", "network": "PVTA", "network:wikidata": "Q7196828", "network:wikipedia": "en:Pioneer Valley Transit Authority", "public_transport": "platform", "ref": "170", "shelter": "yes", "source": "massdot_import_081511"}}, {"type": "node", "id": 1408378049, "lat": 42.488112, "lon": -72.606754, "tags": {"attribution": "massDOT", "bus": "yes", "highway": "bus_stop", "name": "Hardigg", "network": "FRTA", "ref": "S31", "source": "massdot_import_081511"}}, {"type": "node", "id": 1408378146, "lat": 42.374321, "lon": -72.701836, "tags": {"attribution": "massDOT", "bus": "yes", "highway": "bus_stop", "name": "Haydenville Center OB", "network": "PVTA", "ref": "100", "source": "massdot_import_081511"}}, {"type": "node", "id": 1408378151, "lat": 42.374207, "lon": -72.701851, "tags": {"attribution": "massDOT", "bus": "yes", "highway": "bus_stop", "name": "Haydenville IB", "network": "PVTA", "ref": "101", "source": "massdot_import_081511"}}, {"type": "node", "id": 1408378367, "lat": 42.337112, "lon": -72.6427, "tags": {"attribution": "massDOT", "bus": "yes", "highway": "bus_stop", "name": "Jackson/Gleason (Hampshire Heights)", "network": "PVTA", "network:wikidata": "Q7196828", "network:wikipedia": "en:Pioneer Valley Transit Authority", "public_transport": "platform", "ref": "194", "source": "massdot_import_081511"}}, {"type": "node", "id": 1408378368, "lat": 42.3358, "lon": -72.643578, "tags": {"attribution": "massDOT", "bus": "yes", "highway": "bus_stop", "name": "Jackson/Jackson (Jackson St. School)", "network": "PVTA", "network:wikidata": "Q7196828", "network:wikipedia": "en:Pioneer Valley Transit Authority", "public_transport": "platform", "ref": "202", "source": "massdot_import_081511"}}, {"type": "node", "id": 1408378411, "lat": 42.320587, "lon": -72.630905, "tags": {"attribution": "massDOT", "bus": "yes", "highway": "bus_stop", "name": "King/Allen (Hotel Northampton)", "network": "PVTA", "ref": "246", "shelter": "no", "source": "massdot_import_081511"}}, {"type": "node", "id": 1408378412, "lat": 42.323509, "lon": -72.632416, "tags": {"amenity": "fast_food", "attribution": "massDOT", "brand": "Dunkin' Donuts", "brand:wikidata": "Q847743", "brand:wikipedia": "en:Dunkin' Donuts", "bus": "yes", "highway": "bus_stop", "name": "King/Bright (Dunkin' Donuts)", "network": "PVTA", "ref": "242", "source": "massdot_import_081511"}}, {"type": "node", "id": 1408378413, "lat": 42.3288, "lon": -72.633537, "tags": {"attribution": "massDOT", "bus": "yes", "highway": "bus_stop", "name": "King/Church (Wendy's)", "network": "PVTA", "ref": "233", "source": "massdot_import_081511"}}, {"type": "node", "id": 1408378414, "lat": 42.3199898, "lon": -72.6301415, "tags": {"attribution": "massDOT", "bus": "yes", "highway": "bus_stop", "name": "King/Merrick (Calvin Theatre)", "network": "PVTA", "ref": "249", "source": "massdot_import_081511", "wheelchair": "yes"}}, {"type": "node", "id": 1408378415, "lat": 42.323471, "lon": -72.63253, "tags": {"attribution": "massDOT", "bus": "yes", "highway": "bus_stop", "name": "King/North (Cumberland Farms)", "network": "PVTA", "ref": "239", "source": "massdot_import_081511"}}, {"type": "node", "id": 1408378463, "lat": 42.33149, "lon": -72.653214, "tags": {"attribution": "massDOT", "bus": "yes", "highway": "bus_stop", "name": "LOCUST / PROSPECT", "network": "PVTA", "ref": "224", "source": "massdot_import_081511"}}, {"type": "node", "id": 1408378464, "lat": 42.331657, "lon": -72.653183, "tags": {"attribution": "massDOT", "bus": "yes", "highway": "bus_stop", "name": "LOCUST / PROSPECT", "network": "PVTA", "ref": "223", "source": "massdot_import_081511"}}, {"type": "node", "id": 1408378470, "lat": 42.276112, "lon": -72.657539, "tags": {"attribution": "massDOT", "bus": "yes", "highway": "bus_stop", "name": "LOVEFIELD / TERRACE", "network": "PVTA", "ref": "292", "source": "massdot_import_081511"}}, {"type": "node", "id": 1408378506, "lat": 42.353508, "lon": -72.699921, "tags": {"attribution": "massDOT", "bus": "yes", "highway": "bus_stop", "name": "Leeds", "network": "PVTA", "network:wikidata": "Q7196828", "network:wikipedia": "en:Pioneer Valley Transit Authority", "public_transport": "platform", "ref": "143", "shelter": "yes", "source": "massdot_import_081511"}}, {"type": "node", "id": 1408378680, "lat": 42.344147, "lon": -72.681961, "tags": {"attribution": "massDOT", "bus": "yes", "highway": "bus_stop", "name": "Look Park OB", "network": "PVTA", "network:wikidata": "Q7196828", "network:wikipedia": "en:Pioneer Valley Transit Authority", "public_transport": "platform", "ref": "9161", "source": "massdot_import_081511"}}, {"type": "node", "id": 1408378814, "lat": 42.335617, "lon": -72.672157, "tags": {"attribution": "massDOT", "bench": "no", "bin": "yes", "bus": "yes", "highway": "bus_stop", "name": "MAIN / MAPLE", "network": "PVTA", "network:wikidata": "Q7196828", "network:wikipedia": "en:Pioneer Valley Transit Authority", "public_transport": "platform", "ref": "203", "shelter": "no", "source": "massdot_import_081511", "tactile_paving": "no"}}, {"type": "node", "id": 1408378847, "lat": 42.344357, "lon": -72.68235, "tags": {"attribution": "massDOT", "bus": "yes", "highway": "bus_stop", "name": "MAIN / STATE HWY 9", "network": "PVTA", "network:wikidata": "Q7196828", "network:wikipedia": "en:Pioneer Valley Transit Authority", "public_transport": "platform", "ref": "163", "source": "massdot_import_081511"}}, {"type": "node", "id": 1408378870, "lat": 42.332199, "lon": -72.672112, "tags": {"attribution": "massDOT", "bench": "no", "bin": "no", "bus": "yes", "highway": "bus_stop", "name": "MAPLE / PINE", "network": "PVTA", "network:wikidata": "Q7196828", "network:wikipedia": "en:Pioneer Valley Transit Authority", "public_transport": "platform", "ref": "220", "shelter": "no", "source": "massdot_import_081511", "tactile_paving": "no"}}, {"type": "node", "id": 1408378892, "lat": 42.336372, "lon": -72.661316, "tags": {"attribution": "massDOT", "bus": "yes", "highway": "bus_stop", "name": "MEADOWBROOK APARTMENTS / STRAW", "network": "PVTA", "network:wikidata": "Q7196828", "network:wikipedia": "en:Pioneer Valley Transit Authority", "public_transport": "platform", "ref": "199", "shelter": "yes", "source": "massdot_import_081511"}}, {"type": "node", "id": 1408378893, "lat": 42.336521, "lon": -72.661133, "tags": {"attribution": "massDOT", "bus": "yes", "highway": "bus_stop", "name": "MEADOWBROOK APARTMENTS / STRAW", "network": "PVTA", "network:wikidata": "Q7196828", "network:wikipedia": "en:Pioneer Valley Transit Authority", "public_transport": "platform", "ref": "200", "source": "massdot_import_081511"}}, {"type": "node", "id": 1408378894, "lat": 42.33667, "lon": -72.66114, "tags": {"attribution": "massDOT", "bus": "yes", "highway": "bus_stop", "name": "MEADOWBROOK APARTMENTS / UNNAMED STREET", "network": "PVTA", "network:wikidata": "Q7196828", "network:wikipedia": "en:Pioneer Valley Transit Authority", "public_transport": "platform", "ref": "190", "source": "massdot_import_081511"}}, {"type": "node", "id": 1408378896, "lat": 42.337582, "lon": -72.661057, "tags": {"attribution": "massDOT", "bus": "yes", "highway": "bus_stop", "name": "MEADOWBROOK APARTMENTS / UNNAMED STREET", "network": "PVTA", "network:wikidata": "Q7196828", "network:wikipedia": "en:Pioneer Valley Transit Authority", "public_transport": "platform", "ref": "191", "source": "massdot_import_081511"}}, {"type": "node", "id": 1408378900, "lat": 42.339218, "lon": -72.660553, "tags": {"attribution": "massDOT", "bus": "yes", "highway": "bus_stop", "name": "MEADOWBROOK APARTMENTS / UNNAMED STREET", "network": "PVTA", "network:wikidata": "Q7196828", "network:wikipedia": "en:Pioneer Valley Transit Authority", "public_transport": "platform", "ref": "177", "source": "massdot_import_081511"}}, {"type": "node", "id": 1408378901, "lat": 42.339321, "lon": -72.660477, "tags": {"attribution": "massDOT", "bus": "yes", "highway": "bus_stop", "name": "MEADOWBROOK APARTMENTS / UNNAMED STREET", "network": "PVTA", "network:wikidata": "Q7196828", "network:wikipedia": "en:Pioneer Valley Transit Authority", "public_transport": "platform", "ref": "182", "shelter": "yes", "source": "massdot_import_081511"}}, {"type": "node", "id": 1408378902, "lat": 42.339474, "lon": -72.660492, "tags": {"attribution": "massDOT", "bus": "yes", "highway": "bus_stop", "name": "MEADOWBROOK APARTMENTS / UNNAMED STREET", "network": "PVTA", "network:wikidata": "Q7196828", "network:wikipedia": "en:Pioneer Valley Transit Authority", "public_transport": "platform", "ref": "180", "source": "massdot_import_081511"}}, {"type": "node", "id": 1408379132, "lat": 42.33482, "lon": -72.668434, "tags": {"address": "52 Main St.", "attribution": "massDOT", "bench": "no", "bin": "no", "bus": "yes", "highway": "bus_stop", "name": "Main/Wilder", "network": "PVTA", "network:wikidata": "Q7196828", "network:wikipedia": "en:Pioneer Valley Transit Authority", "public_transport": "platform", "ref": "209", "shelter": "no", "source": "massdot_import_081511", "tactile_paving": "no"}}, {"type": "node", "id": 1408379151, "lat": 42.335979, "lon": -72.672012, "tags": {"attribution": "massDOT", "bench": "no", "bus": "yes", "highway": "bus_stop", "name": "Maple/Main (High St. Variant)", "network": "PVTA", "network:wikidata": "Q7196828", "network:wikipedia": "en:Pioneer Valley Transit Authority", "public_transport": "platform", "ref": "201", "shelter": "no", "source": "massdot_import_081511", "tactile_paving": "no"}}, {"type": "node", "id": 1408379152, "lat": 42.334846, "lon": -72.67205, "tags": {"attribution": "massDOT", "bench": "no", "bin": "yes", "bus": "yes", "highway": "bus_stop", "name": "Maple/Main (outbound)", "network": "PVTA", "network:wikidata": "Q7196828", "network:wikipedia": "en:Pioneer Valley Transit Authority", "public_transport": "platform", "ref": "208", "shelter": "no", "source": "massdot_import_081511", "tactile_paving": "no"}}, {"type": "node", "id": 1408379204, "lat": 42.317841, "lon": -72.633232, "tags": {"attribution": "massDOT", "bench": "yes", "bin": "yes", "bus": "yes", "highway": "bus_stop", "name": "Masonic St/ Academy of Music OB", "network": "PVTA", "ref": "260", "shelter": "no", "source": "massdot_import_081511", "tactile_paving": "no"}}, {"type": "node", "id": 1408379557, "lat": 42.47242, "lon": -72.601395, "tags": {"attribution": "massDOT", "bus": "yes", "highway": "bus_stop", "name": "Mountain Rd (In)", "network": "PVTA", "ref": "3", "source": "massdot_import_081511"}}, {"type": "node", "id": 1408379560, "lat": 42.472538, "lon": -72.601402, "tags": {"attribution": "massDOT", "bus": "yes", "highway": "bus_stop", "name": "Mountain Road (Out)", "network": "PVTA", "ref": "2", "source": "massdot_import_081511"}}, {"type": "node", "id": 1408380044, "lat": 42.319291, "lon": -72.6303155, "tags": {"attribution": "massDOT", "bench": "yes", "bus": "yes", "highway": "bus_stop", "name": "Northampton Court House", "network": "PVTA", "network:wikidata": "Q7196828", "public_transport": "platform", "ref": "254", "shelter": "yes", "source": "massdot_import_081511", "wheelchair": "yes"}}, {"type": "node", "id": 1408380045, "lat": 42.317944, "lon": -72.627502, "tags": {"attribution": "massDOT", "bus": "yes", "highway": "bus_stop", "name": "Northampton Lodging", "network": "PVTA", "ref": "259", "source": "massdot_import_081511"}}, {"type": "node", "id": 1408380046, "lat": 42.3215776, "lon": -72.6270984, "tags": {"attribution": "massDOT", "bus": "yes", "highway": "bus_stop", "name": "Northampton Post Office", "network": "PVTA", "ref": "244", "source": "massdot_import_081511", "wheelchair": "yes"}}, {"type": "node", "id": 1408380059, "lat": 42.284962, "lon": -72.65609, "tags": {"attribution": "massDOT", "bus": "yes", "highway": "bus_stop", "name": "ONEIL / UNNAMED STREET", "network": "PVTA", "ref": "284", "source": "massdot_import_081511"}}, {"type": "node", "id": 1408380060, "lat": 42.284969, "lon": -72.656189, "tags": {"attribution": "massDOT", "bus": "yes", "highway": "bus_stop", "name": "ONEIL / UNNAMED STREET", "network": "PVTA", "ref": "283", "source": "massdot_import_081511"}}, {"type": "node", "id": 1408380186, "lat": 42.33115, "lon": -72.676453, "tags": {"attribution": "massDOT", "bench": "no", "bin": "no", "bus": "yes", "highway": "bus_stop", "name": "PINE / CORTICELLI", "network": "PVTA", "network:wikidata": "Q7196828", "network:wikipedia": "en:Pioneer Valley Transit Authority", "public_transport": "platform", "ref": "225", "shelter": "no", "source": "massdot_import_081511"}}, {"type": "node", "id": 1408380203, "lat": 42.274158, "lon": -72.661835, "tags": {"attribution": "massDOT", "bus": "yes", "highway": "bus_stop", "name": "PLEASANT / RIDGEWOOD", "network": "PVTA", "ref": "296", "source": "massdot_import_081511"}}, {"type": "node", "id": 1408380204, "lat": 42.275902, "lon": -72.657845, "tags": {"attribution": "massDOT", "bus": "yes", "highway": "bus_stop", "name": "PLEASANT / TERRACE", "network": "PVTA", "ref": "293", "source": "massdot_import_081511"}}, {"type": "node", "id": 1408380502, "lat": 42.274017, "lon": -72.661934, "tags": {"attribution": "massDOT", "bus": "yes", "highway": "bus_stop", "name": "Pleasant & Ridgewood", "network": "PVTA", "ref": "297", "source": "massdot_import_081511"}}, {"type": "node", "id": 1408380529, "lat": 42.315002, "lon": -72.625252, "tags": {"attribution": "massDOT", "bus": "yes", "highway": "bus_stop", "name": "Pleasant St/ Hockanum Rd OB", "network": "PVTA", "ref": "262", "source": "massdot_import_081511"}}, {"type": "node", "id": 1408380555, "lat": 42.272388, "lon": -72.667213, "tags": {"attribution": "massDOT", "bus": "yes", "highway": "bus_stop", "name": "Pleasant/Hill (Eastworks)", "network": "PVTA", "ref": "300", "source": "massdot_import_081511"}}, {"type": "node", "id": 1408380685, "lat": 42.319721, "lon": -72.637474, "tags": {"bus": "yes", "highway": "bus_stop", "name": "Prospect St", "network": "PVTA", "ref": "252"}}, {"type": "node", "id": 1408380748, "lat": 42.340694, "lon": -72.601494, "tags": {"attribution": "massDOT", "bus": "yes", "departures_board": "no", "highway": "bus_stop", "name": "RUSSELL / ELMWOOD", "network": "PVTA", "network:wikidata": "Q7196828", "network:wikipedia": "en:Pioneer Valley Transit Authority", "public_transport": "platform", "ref": "176", "shelter": "no", "source": "massdot_import_081511"}}, {"type": "node", "id": 1408380749, "lat": 42.340919, "lon": -72.601372, "tags": {"attribution": "massDOT", "bus": "yes", "departures_board": "no", "highway": "bus_stop", "name": "RUSSELL / ELMWOOD", "network": "PVTA", "network:wikidata": "Q7196828", "network:wikipedia": "en:Pioneer Valley Transit Authority", "public_transport": "platform", "ref": "175", "shelter": "no", "source": "massdot_import_081511"}}, {"type": "node", "id": 1408380755, "lat": 42.342014, "lon": -72.596077, "tags": {"attribution": "massDOT", "bus": "yes", "highway": "bus_stop", "name": "RUSSELL / STATE HWY 9", "network": "PVTA", "network:wikidata": "Q7196828", "network:wikipedia": "en:Pioneer Valley Transit Authority", "public_transport": "platform", "ref": "173", "source": "massdot_import_081511"}}, {"type": "node", "id": 1408380875, "lat": 42.339928, "lon": -72.606712, "tags": {"attribution": "massDOT", "bus": "yes", "departures_board": "no", "highway": "bus_stop", "name": "Russell/Bay", "network": "PVTA", "network:wikidata": "Q7196828", "network:wikipedia": "en:Pioneer Valley Transit Authority", "public_transport": "platform", "ref": "178", "shelter": "no", "source": "massdot_import_081511"}}, {"type": "node", "id": 1408380876, "lat": 42.339691, "lon": -72.607033, "tags": {"attribution": "massDOT", "bus": "yes", "departures_board": "no", "highway": "bus_stop", "name": "Russell/Bay (Barn Shops)", "network": "PVTA", "network:wikidata": "Q7196828", "network:wikipedia": "en:Pioneer Valley Transit Authority", "public_transport": "platform", "ref": "183", "shelter": "no", "source": "massdot_import_081511"}}, {"type": "node", "id": 1408380884, "lat": 42.329895, "lon": -72.678619, "tags": {"attribution": "massDOT", "bench": "no", "bin": "no", "bus": "yes", "highway": "bus_stop", "name": "Ryan/ Spring OB", "network": "PVTA", "network:wikidata": "Q7196828", "network:wikipedia": "en:Pioneer Valley Transit Authority", "public_transport": "platform", "ref": "9008", "shelter": "no", "source": "massdot_import_081511", "tactile_paving": "no"}}, {"type": "node", "id": 1408381318, "lat": 42.334656, "lon": -72.663773, "tags": {"attribution": "massDOT", "bench": "no", "bin": "no", "bus": "yes", "highway": "bus_stop", "name": "STRAW / BERKSHIRE", "network": "PVTA", "network:wikidata": "Q7196828", "network:wikipedia": "en:Pioneer Valley Transit Authority", "public_transport": "platform", "ref": "210", "shelter": "no", "source": "massdot_import_081511", "tactile_paving": "no"}}, {"type": "node", "id": 1408381322, "lat": 42.334972, "lon": -72.663597, "tags": {"attribution": "massDOT", "bus": "yes", "highway": "bus_stop", "name": "STRAW / BERKSHIRE", "network": "PVTA", "network:wikidata": "Q7196828", "network:wikipedia": "en:Pioneer Valley Transit Authority", "public_transport": "platform", "ref": "211", "source": "massdot_import_081511"}}, {"type": "node", "id": 1408381440, "lat": 42.328938, "lon": -72.624115, "tags": {"attribution": "massDOT", "bus": "yes", "highway": "bus_stop", "name": "Sheldon Field (E)", "network": "PVTA", "ref": "230", "source": "massdot_import_081511", "wheelchair": "yes"}}, {"type": "node", "id": 1408381441, "lat": 42.328922, "lon": -72.624268, "tags": {"attribution": "massDOT", "bus": "yes", "highway": "bus_stop", "name": "Sheldon Field (W)", "network": "PVTA", "ref": "229", "source": "massdot_import_081511", "wheelchair": "yes"}}, {"type": "node", "id": 1408381461, "lat": 42.2994, "lon": -72.602211, "tags": {"attribution": "massDOT", "bus": "yes", "highway": "bus_stop", "name": "Skinner Mountain (N)", "network": "PVTA", "ref": "8016", "source": "massdot_import_081511"}}, {"type": "node", "id": 1408381462, "lat": 42.299198, "lon": -72.602524, "tags": {"attribution": "massDOT", "bus": "yes", "highway": "bus_stop", "name": "Skinner Mountain (S)", "network": "PVTA", "ref": "8017", "source": "massdot_import_081511"}}, {"type": "node", "id": 1408381476, "lat": 42.477036, "lon": -72.607452, "tags": {"attribution": "massDOT", "bus": "yes", "highway": "bus_stop", "name": "South Deerfield Center", "network": "PVTA", "ref": "1", "source": "massdot_import_081511"}}, {"type": "node", "id": 1408381477, "lat": 42.4773276, "lon": -72.6083904, "tags": {"attribution": "massDOT", "bus": "yes", "highway": "bus_stop", "name": "South Deerfield Center", "network": "FRTA", "public_transport": "platform", "ref": "S19", "source": "massdot_import_081511"}}, {"type": "node", "id": 1408381587, "lat": 42.33012, "lon": -72.675125, "tags": {"attribution": "massDOT", "bench": "no", "bin": "no", "bus": "yes", "highway": "bus_stop", "name": "Starlite Center", "network": "PVTA", "network:wikidata": "Q7196828", "network:wikipedia": "en:Pioneer Valley Transit Authority", "public_transport": "platform", "ref": "226", "shelter": "no", "source": "massdot_import_081511", "tactile_paving": "no"}}, {"type": "node", "id": 1408381643, "lat": 42.329475, "lon": -72.636169, "tags": {"attribution": "massDOT", "bus": "yes", "highway": "bus_stop", "name": "Stop & Shop", "network": "PVTA", "network:wikidata": "Q7196828", "network:wikipedia": "en:Pioneer Valley Transit Authority", "public_transport": "platform", "ref": "228", "source": "massdot_import_081511"}}, {"type": "node", "id": 1408381706, "lat": 42.467815, "lon": -72.595367, "tags": {"attribution": "massDOT", "bus": "yes", "highway": "bus_stop", "name": "Sugarloaf Street (In)", "network": "PVTA", "ref": "5", "source": "massdot_import_081511"}}, {"type": "node", "id": 1408381707, "lat": 42.467953, "lon": -72.595413, "tags": {"attribution": "massDOT", "bus": "yes", "highway": "bus_stop", "name": "Sugarloaf Street (Out)", "network": "PVTA", "ref": "4", "source": "massdot_import_081511"}}, {"type": "node", "id": 1408381861, "lat": 42.318462, "lon": -72.631142, "tags": {"attribution": "massDOT", "bench": "no", "bin": "no", "bus": "yes", "highway": "bus_stop", "name": "Thornes Market (R44 Only)", "network": "PVTA", "ref": "256", "shelter": "no", "source": "massdot_import_081511", "wheelchair": "yes"}}, {"type": "node", "id": 1408381975, "lat": 42.351288, "lon": -72.682175, "tags": {"attribution": "massDOT", "bus": "yes", "highway": "bus_stop", "name": "VA Medical Center", "network": "PVTA", "ref": "150", "source": "massdot_import_081511"}}, {"type": "node", "id": 1408383070, "lat": 42.313328, "lon": -72.627625, "tags": {"attribution": "massDOT", "bus": "yes", "highway": "bus_stop", "name": "Walter Salvo House", "network": "PVTA", "ref": "267", "source": "massdot_import_081511"}}, {"type": "node", "id": 1408383282, "lat": 42.444836, "lon": -72.625765, "tags": {"attribution": "massDOT", "bus": "yes", "highway": "bus_stop", "name": "Whately", "network": "FRTA", "ref": "S36", "source": "massdot_import_081511"}}, {"type": "node", "id": 1408383304, "lat": 42.391998, "lon": -72.729706, "tags": {"attribution": "massDOT", "bus": "yes", "highway": "bus_stop", "name": "Williamsburg Center/ Grange Hall", "network": "PVTA", "ref": "55", "source": "massdot_import_081511"}}, {"type": "node", "id": 1408383363, "lat": 42.474629, "lon": -72.614092, "tags": {"attribution": "massDOT", "bus": "yes", "highway": "bus_stop", "name": "Yankee Candle Intrnl", "network": "FRTA", "ref": "S37", "source": "massdot_import_081511"}}, {"type": "node", "id": 1408383404, "lat": 42.333683, "lon": -72.629501, "tags": {"attribution": "massDOT", "bus": "yes", "highway": "bus_stop", "name": "54 Industrial Drive", "network": "PVTA", "ref": "9012", "source": "massdot_import_081511", "wheelchair": "yes"}}, {"type": "node", "id": 1459467609, "lat": 42.3167166, "lon": -72.6320236, "tags": {"amenity": "bus_station", "bus": "yes", "name": "Peter Pan", "public_transport": "station"}}, {"type": "node", "id": 1674679046, "lat": 42.3176674, "lon": -72.6332435, "tags": {"attribution": "massDOT", "bench": "yes", "bus": "yes", "highway": "bus_stop", "name": "Academy of Music", "network": "PVTA", "ref": "261", "shelter": "yes", "source": "massdot_import_081511", "tactile_paving": "no"}}, {"type": "node", "id": 1674679047, "lat": 42.3166108, "lon": -72.6316099, "tags": {"attribution": "massDOT", "bus": "yes", "highway": "bus_stop", "name": "Crafts Ave/ Peter Pan", "network": "PVTA", "ref": "9160", "source": "massdot_import_081511"}}, {"type": "node", "id": 1674756098, "lat": 42.3196141, "lon": -72.6375832, "tags": {"bench": "yes", "bin": "no", "bus": "yes", "highway": "bus_stop", "lit": "yes", "name": "Smith College", "network": "PVTA", "ref": "251", "shelter": "yes", "tactile_paving": "no"}}]}